{"type":"FeatureCollection","features":[{"type":"Feature","properties":{"island":"New Guinea","locality":"Abenago (Abenaho)","stateProvince":"Jayawijaya Mountains","verbatimCoordinates":"-3 139","verbatimAltitude":"1800"},"geometry":{"type":"Point","coordinates":[139,-3]}},{"type":"Feature","properties":{"island":"New Guinea","locality":"Abmisibil","stateProvince":"Star Mountains","verbatimCoordinates":"-4\u00b040 140\u00b034","verbatimAltitude":"1800-1970"},"geometry":{"type":"Point","coordinates":[140.56666666667,-4.6666666666667]}},{"type":"Feature","properties":{"island":"New Guinea","locality":"Abmisibil, River Okbon","stateProvince":"Star Mountains","verbatimCoordinates":"-4\u00b040 140\u00b034"},"geometry":{"type":"Point","coordinates":[140.56666666667,-4.6666666666667]}},{"type":"Feature","properties":{"island":"New Guinea","locality":"Abmisibil, River Okbon","stateProvince":"Star Mountains","verbatimCoordinates":"-4\u00b032 140\u00b038"},"geometry":{"type":"Point","coordinates":[140.63333333333,-4.5333333333333]}},{"type":"Feature","properties":{"island":"New Guinea","locality":"Abmisibil, River Okmamdon","stateProvince":"Star Mountains","verbatimCoordinates":"-4\u00b040 140\u00b034"},"geometry":{"type":"Point","coordinates":[140.56666666667,-4.6666666666667]}},{"type":"Feature","properties":{"island":"New Guinea","locality":"Abmisibil, River Okmi","stateProvince":"Star Mountains","verbatimCoordinates":"-4\u00b040 140\u00b034"},"geometry":{"type":"Point","coordinates":[140.56666666667,-4.6666666666667]}},{"type":"Feature","properties":{"island":"New Guinea","locality":"Abmisibil, River Okmi","stateProvince":"Star Mountains","verbatimCoordinates":"-4\u00b032 140\u00b033"},"geometry":{"type":"Point","coordinates":[140.55,-4.5333333333333]}},{"type":"Feature","properties":{"island":"New Guinea","locality":"Abmisibil, River Okngupel","stateProvince":"Star Mountains","verbatimCoordinates":"-4.40 140.34"},"geometry":{"type":"Point","coordinates":[140.34,-4.4]}},{"type":"Feature","properties":{"island":"New Guinea","locality":"Abmisibil, River Okngupel","stateProvince":"Star Mountains","verbatimCoordinates":"-4\u00b032 140\u00b033"},"geometry":{"type":"Point","coordinates":[140.55,-4.5333333333333]}},{"type":"Feature","properties":{"island":"New Guinea","locality":"Abmisibil, River Okpeti","stateProvince":"Star Mountains","verbatimCoordinates":"-4\u00b041 140\u00b034"},"geometry":{"type":"Point","coordinates":[140.56666666667,-4.6833333333333]}},{"type":"Feature","properties":{"island":"New Guinea","locality":"Abmisibil, River Okpeti","stateProvince":"Star Mountains","verbatimCoordinates":"-4\u00b032 140\u00b033"},"geometry":{"type":"Point","coordinates":[140.55,-4.5333333333333]}},{"type":"Feature","properties":{"island":"New Guinea","locality":"Abmisibil, River Okse","stateProvince":"Star Mountains","verbatimCoordinates":"-4\u00b040 140\u00b033"},"geometry":{"type":"Point","coordinates":[140.55,-4.6666666666667]}},{"type":"Feature","properties":{"island":"New Guinea","locality":"Abmisibil, River Okse","stateProvince":"Star Mountains","verbatimCoordinates":"-4\u00b032 140\u00b033"},"geometry":{"type":"Point","coordinates":[140.55,-4.5333333333333]}},{"type":"Feature","properties":{"island":"New Guinea","locality":"Abmisibil, River Oktanglap","stateProvince":"Star Mountains","verbatimCoordinates":"-4\u00b039 140\u00b034","verbatimAltitude":"1500"},"geometry":{"type":"Point","coordinates":[140.56666666667,-4.65]}},{"type":"Feature","properties":{"island":"New Guinea","locality":"Abmisibil, River Oktero","stateProvince":"Star Mountains","verbatimCoordinates":"-4\u00b039 140\u00b034"},"geometry":{"type":"Point","coordinates":[140.56666666667,-4.65]}},{"type":"Feature","properties":{"island":"New Guinea","locality":"Abmisibil, River Takpalngi","stateProvince":"Star Mountains","verbatimCoordinates":"-4\u00b040 140\u00b034"},"geometry":{"type":"Point","coordinates":[140.56666666667,-4.6666666666667]}},{"type":"Feature","properties":{"island":"New Guinea","locality":"Abmisibil, River Takpalngi","stateProvince":"Star Mountains","verbatimCoordinates":"-4\u00b032 140\u00b033"},"geometry":{"type":"Point","coordinates":[140.55,-4.5333333333333]}},{"type":"Feature","properties":{"island":"New Guinea","locality":"Aboge","stateProvince":"S Papua","verbatimCoordinates":"-6\u00b004 139\u00b014"},"geometry":{"type":"Point","coordinates":[139.23333333333,-6.0666666666667]}},{"type":"Feature","properties":{"island":"New Guinea","locality":"Aboyi","stateProvince":"NE Papua","verbatimCoordinates":"-4\u00b018 140\u00b038"},"geometry":{"type":"Point","coordinates":[140.63333333333,-4.3]}},{"type":"Feature","properties":{"island":"New Guinea","locality":"Abrerso, nr Ransiki","stateProvince":"Arfak Mountains (NE Birdshead Peninsula)","verbatimCoordinates":"-1\u00b032 134\u00b011"},"geometry":{"type":"Point","coordinates":[134.18333333333,-1.5333333333333]}},{"type":"Feature","properties":{"island":"Biak","locality":"Adadikam","stateProvince":"Schouten Islands","verbatimCoordinates":"-0 135"},"geometry":{"type":"Point","coordinates":[135,-0]}},{"type":"Feature","properties":{"island":"Adi","locality":"Adi Island","stateProvince":"S Bomberai Peninsula","verbatimCoordinates":"-4\u00b03 133\u00b043","verbatimAltitude":"200"},"geometry":{"type":"Point","coordinates":[133.71666666667,-4.05]}},{"type":"Feature","properties":{"island":"Misool","locality":"Adola","stateProvince":"Raja Ampat Islands","verbatimCoordinates":"-1\u00b055 129\u00b052","georeferenceSources":"Nelles Map - Indonesia (Papua, Maluku)"},"geometry":{"type":"Point","coordinates":[129.86666666667,-1.9166666666667]}},{"type":"Feature","properties":{"island":"Misool","locality":"Adua","stateProvince":"Raja Ampat Islands","verbatimCoordinates":"-1\u00b052 129\u00b048","georeferenceSources":"Nelles Map - Indonesia (Papua, Maluku)"},"geometry":{"type":"Point","coordinates":[129.8,-1.8666666666667]}},{"type":"Feature","properties":{"island":"New Guinea","locality":"Affi, Jafi District","stateProvince":"Jayapura Area","verbatimCoordinates":"-3\u00b020 140\u00b055"},"geometry":{"type":"Point","coordinates":[140.91666666667,-3.3333333333333]}},{"type":"Feature","properties":{"island":"New Guinea","locality":"Agathodaemonsberg, Hellwig Mts","stateProvince":"S Jayawijaya Mountains","verbatimCoordinates":"-4,5225 138,642"},"geometry":{"type":"Point","coordinates":[138.642,-4.5225]}},{"type":"Feature","properties":{"island":"New Guinea","locality":"Agats (Agatz)","stateProvince":"Casuarina Coast","verbatimCoordinates":"-5,55000000 138,13333330"},"geometry":{"type":"Point","coordinates":[138.1333333,-5.55]}},{"type":"Feature","properties":{"island":"Aiduma","locality":"Aiduma","stateProvince":"SW Papua","verbatimCoordinates":"-4 134"},"geometry":{"type":"Point","coordinates":[134,-4]}},{"type":"Feature","properties":{"island":"Aiduma","locality":"Aiduma Island","stateProvince":"SW Papua","verbatimCoordinates":"-4 134","verbatimAltitude":"457"},"geometry":{"type":"Point","coordinates":[134,-4]}},{"type":"Feature","properties":{"island":"New Guinea","locality":"Aiduna","stateProvince":"SW Papua","verbatimCoordinates":"-4 135"},"geometry":{"type":"Point","coordinates":[135,-4]}},{"type":"Feature","properties":{"island":"New Guinea","locality":"Aifat","stateProvince":"Birdshead Peninsula","verbatimCoordinates":"-1\u00b022 132\u00b036"},"geometry":{"type":"Point","coordinates":[132.6,-1.3666666666667]}},{"type":"Feature","properties":{"island":"New Guinea","locality":"Aifat River Valley","stateProvince":"Birdshead Peninsula","verbatimCoordinates":"-1,36667 132,6"},"geometry":{"type":"Point","coordinates":[132.6,-1.36667]}},{"type":"Feature","properties":{"island":"New Guinea","locality":"Aindoea, Sei (Aiudua, Aiduna)","stateProvince":"SW Papua","verbatimCoordinates":"-4\u00b027 135\u00b012"},"geometry":{"type":"Point","coordinates":[135.2,-4.45]}},{"type":"Feature","properties":{"island":"Waigeo","locality":"Air Borei (Airborei)","stateProvince":"Raja Ampat Islands","verbatimCoordinates":"-0\u00b034 130\u00b031","georeferenceSources":"Nelles Map - Indonesia (Papua, Maluku)"},"geometry":{"type":"Point","coordinates":[130.51666666667,-0.56666666666667]}},{"type":"Feature","properties":{"island":"New Guinea","locality":"Air Garam II","verbatimCoordinates":"-3\u00b052 138\u00b022"},"geometry":{"type":"Point","coordinates":[138.36666666667,-3.8666666666667]}},{"type":"Feature","properties":{"island":"New Guinea","locality":"Air Garam, Tiomf","stateProvince":"Jayawijaya Mountains","verbatimCoordinates":"-3\u00b052 138\u00b022"},"geometry":{"type":"Point","coordinates":[138.36666666667,-3.8666666666667]}},{"type":"Feature","properties":{"island":"Supiori","locality":"Air Terjun Pulang Via Ababiaydi","stateProvince":"Schouten Islands","verbatimCoordinates":"-0 135","verbatimAltitude":"10-400"},"geometry":{"type":"Point","coordinates":[135,-0]}},{"type":"Feature","properties":{"island":"Yapen","locality":"Aisau (Aisaoe, Aisao)","stateProvince":"Schouten Islands","verbatimCoordinates":"-1,73 136,71"},"geometry":{"type":"Point","coordinates":[136.71,-1.73]}},{"type":"Feature","properties":{"island":"New Guinea","locality":"Aitinjoe (Aitinju)","verbatimCoordinates":"-1\u00b041 132\u00b005"},"geometry":{"type":"Point","coordinates":[132.08333333333,-1.6833333333333]}},{"type":"Feature","properties":{"island":"New Guinea","locality":"Ajamaroe (Ajamaru)","stateProvince":"C Birdshead Peninsula","verbatimCoordinates":"-1,23 132,20"},"geometry":{"type":"Point","coordinates":[132.2,-1.23]}},{"type":"Feature","properties":{"island":"New Guinea","locality":"Ajamaru Lake","stateProvince":"C Birdshead Peninsula","verbatimCoordinates":"-1,25 132,25"},"geometry":{"type":"Point","coordinates":[132.25,-1.25]}},{"type":"Feature","properties":{"island":"Ayu","locality":"Ajoe (Ayu) Islands","stateProvince":"Raja Ampat Islands","verbatimCoordinates":"0\u00b030 131\u00b010","georeferenceSources":"Nelles Map - Indonesia (Papua, Maluku)"},"geometry":{"type":"Point","coordinates":[131.16666666667,0.5]}},{"type":"Feature","properties":{"island":"New Guinea","locality":"Akai, Kampong","stateProvince":"N Birdshead Peninsula","verbatimCoordinates":"-0,817 133,067"},"geometry":{"type":"Point","coordinates":[133.067,-0.817]}},{"type":"Feature","properties":{"island":"New Guinea","locality":"Akinuga (Akimuga)","stateProvince":"Lorentz Reserve","verbatimCoordinates":"-4\u00b036 137\u00b039"},"geometry":{"type":"Point","coordinates":[137.65,-4.6]}},{"type":"Feature","properties":{"island":"New Guinea","locality":"Akrim","stateProvince":"N Birdshead Peninsula","verbatimCoordinates":"-0\u00b05 133\u00b01"},"geometry":{"type":"Point","coordinates":[133.01666666667,-0.083333333333333]}},{"type":"Feature","properties":{"island":"New Guinea","locality":"Albatrosbivak","stateProvince":"Mamberamo River","verbatimCoordinates":"-2\u00b019 138\u00b002","verbatimAltitude":"low"},"geometry":{"type":"Point","coordinates":[138.03333333333,-2.3166666666667]}},{"type":"Feature","properties":{"island":"New Guinea","locality":"Albino bivak","stateProvince":"Mamberamo Area","verbatimCoordinates":"-1\u00b026 137\u00b053"},"geometry":{"type":"Point","coordinates":[137.88333333333,-1.4333333333333]}},{"type":"Feature","properties":{"island":"New Guinea","locality":"Alkmaar Bivak","stateProvince":"Lorentz River","verbatimCoordinates":"-4\u00b040 138\u00b043"},"geometry":{"type":"Point","coordinates":[138.71666666667,-4.6666666666667]}},{"type":"Feature","properties":{"island":"New Guinea","locality":"Amamapare","stateProvince":"Caruarine Coast","verbatimCoordinates":"-4\u00b052 136\u00b048"},"geometry":{"type":"Point","coordinates":[136.8,-4.8666666666667]}},{"type":"Feature","properties":{"island":"New Guinea","locality":"Amar","stateProvince":"Caruarine Coast","verbatimCoordinates":"-4 136"},"geometry":{"type":"Point","coordinates":[136,-4]}},{"type":"Feature","properties":{"island":"New Guinea","locality":"Amazu","stateProvince":"Digul Area","verbatimCoordinates":"-5\u00b036 139\u00b037"},"geometry":{"type":"Point","coordinates":[139.61666666667,-5.6]}},{"type":"Feature","properties":{"island":"Ambai","locality":"Ambai Island (nr Yapen)","stateProvince":"Schouten Islands","verbatimCoordinates":"-1 136"},"geometry":{"type":"Point","coordinates":[136,-1]}},{"type":"Feature","properties":{"island":"Yapen","locality":"Ambaidiru, ~17 km NE Serui, ridge of Mt. Amoman","stateProvince":"Schouten Islands","verbatimCoordinates":"-1\u00b045 136\u00b019"},"geometry":{"type":"Point","coordinates":[136.31666666667,-1.75]}},{"type":"Feature","properties":{"island":"New Guinea","locality":"Amban (near Manokwari)","stateProvince":"NE Birdshead Peninsula","verbatimCoordinates":"-0\u00b049 134\u00b004"},"geometry":{"type":"Point","coordinates":[134.06666666667,-0.81666666666667]}},{"type":"Feature","properties":{"island":"New Guinea","locality":"Ambuar","stateProvince":"SE Birdshead Peninsula","verbatimCoordinates":"-2 134"},"geometry":{"type":"Point","coordinates":[134,-2]}},{"type":"Feature","properties":{"island":"New Guinea","locality":"Ambubaki (Ambuaki, Amboeaki, Amberbaki)","stateProvince":"N Birdshead Peninsula","verbatimCoordinates":"-0\u00b045 132\u00b057"},"geometry":{"type":"Point","coordinates":[132.95,-0.75]}},{"type":"Feature","properties":{"island":"New Guinea","locality":"Ampas, Waris District","stateProvince":"Jayapura Area","verbatimCoordinates":"-3\u00b007 140\u00b055","verbatimAltitude":"450","georeferenceSources":"Dr. A.J. de Boer (GPS)"},"geometry":{"type":"Point","coordinates":[140.91666666667,-3.1166666666667]}},{"type":"Feature","properties":{"island":"New Guinea","locality":"Amsui","stateProvince":"Arfak Mountains (NE Birdshead Peninsula)","verbatimCoordinates":"-1 133"},"geometry":{"type":"Point","coordinates":[133,-1]}},{"type":"Feature","properties":{"island":"Amutu","locality":"Amutu Island","stateProvince":"Bomberai Peninsula","verbatimCoordinates":"-2 133"},"geometry":{"type":"Point","coordinates":[133,-2]}},{"type":"Feature","properties":{"island":"New Guinea","locality":"Anakasi","stateProvince":"E Birdshead Peninsula","verbatimCoordinates":"-2\u00b003 133\u00b056"},"geometry":{"type":"Point","coordinates":[133.93333333333,-2.05]}},{"type":"Feature","properties":{"island":"New Guinea","locality":"Andai","stateProvince":"NE Birdshead Peninsula","verbatimCoordinates":"-0\u00b055 134\u00b001","verbatimAltitude":"low"},"geometry":{"type":"Point","coordinates":[134.01666666667,-0.91666666666667]}},{"type":"Feature","properties":{"island":"New Guinea","locality":"Andai Bay","stateProvince":"NE Birdshead Peninsula","verbatimCoordinates":"-0 134"},"geometry":{"type":"Point","coordinates":[134,-0]}},{"type":"Feature","properties":{"island":"New Guinea","locality":"Andai Forest Reserve","stateProvince":"NE Birdshead Peninsula","verbatimCoordinates":"-0,91666 134,0000000"},"geometry":{"type":"Point","coordinates":[134,-0.91666]}},{"type":"Feature","properties":{"island":"New Guinea","locality":"Andamata (Adamata)","stateProvince":"Onin (Fakfak) Peninsula","verbatimCoordinates":"-2\u00b04 132\u00b03"},"geometry":{"type":"Point","coordinates":[132.05,-2.0666666666667]}},{"type":"Feature","properties":{"island":"New Guinea","locality":"Andang","stateProvince":"Arfak Mountains (NE Birdshead Peninsula)","verbatimCoordinates":"-1 133"},"geometry":{"type":"Point","coordinates":[133,-1]}},{"type":"Feature","properties":{"island":"New Guinea","locality":"Andjai (Anjai)","stateProvince":"N Birdshead Peninsula","verbatimCoordinates":"-0\u00b046 132\u00b056"},"geometry":{"type":"Point","coordinates":[132.93333333333,-0.76666666666667]}},{"type":"Feature","properties":{"island":"New Guinea","locality":"Andjai to Mt. Nettoti","stateProvince":"N Birdshead Peninsula","verbatimCoordinates":"-0,755 133,091"},"geometry":{"type":"Point","coordinates":[133.091,-0.755]}},{"type":"Feature","properties":{"island":"New Guinea","locality":"Andusu","stateProvince":"NE Papua","verbatimCoordinates":"-2,00000000 139,33333330"},"geometry":{"type":"Point","coordinates":[139.3333333,-2]}},{"type":"Feature","properties":{"island":"New Guinea","locality":"Angemoek (Angemuk)","stateProvince":"Jayawijaya Mountains","verbatimCoordinates":"-3\u00b030 138\u00b028"},"geometry":{"type":"Point","coordinates":[138.46666666667,-3.5]}},{"type":"Feature","properties":{"island":"New Guinea","locality":"Anggi Gigi","stateProvince":"Arfak Mountains (NE Birdshead Peninsula)","verbatimCoordinates":"-1,383333 133,883333"},"geometry":{"type":"Point","coordinates":[133.883333,-1.383333]}},{"type":"Feature","properties":{"island":"New Guinea","locality":"Anggi Gita","stateProvince":"Arfak Mountains (NE Birdshead Peninsula)","verbatimCoordinates":"-1,4 133,967"},"geometry":{"type":"Point","coordinates":[133.967,-1.4]}},{"type":"Feature","properties":{"island":"New Guinea","locality":"Anggi Lakes","stateProvince":"Arfak Mountains (NE Birdshead Peninsula)","verbatimCoordinates":"-1\u00b024 133\u00b058","verbatimAltitude":"1800"},"geometry":{"type":"Point","coordinates":[133.96666666667,-1.4]}},{"type":"Feature","properties":{"island":"New Guinea","locality":"Angguruk (Anggruk)","verbatimCoordinates":"-4\u00b016 139\u00b024"},"geometry":{"type":"Point","coordinates":[139.4,-4.2666666666667]}},{"type":"Feature","properties":{"island":"New Guinea","locality":"Angguruk Gap","verbatimCoordinates":"-4\u00b017 139\u00b021"},"geometry":{"type":"Point","coordinates":[139.35,-4.2833333333333]}},{"type":"Feature","properties":{"island":"New Guinea","locality":"Angkasa, nr Jayapura","stateProvince":"Cyclop Mountains","verbatimCoordinates":"-2\u00b032 140\u00b042"},"geometry":{"type":"Point","coordinates":[140.7,-2.5333333333333]}},{"type":"Feature","properties":{"island":"Angululi","locality":"Angoeloeli (Angululi)","stateProvince":"Sariga Islands (N Onin Peninsula)","verbatimCoordinates":"-2,65000000 132,18333330"},"geometry":{"type":"Point","coordinates":[132.1833333,-2.65]}},{"type":"Feature","properties":{"island":"Angrameos","locality":"Angrameos Island","stateProvince":"Cenderawasih Bay (Geelvink Baai)","verbatimCoordinates":"-2 134","verbatimAltitude":"205"},"geometry":{"type":"Point","coordinates":[134,-2]}},{"type":"Feature","properties":{"island":"New Guinea","locality":"Anitma","stateProvince":"Jayawijaya Mountains","verbatimCoordinates":"-4\u00b028 138\u00b055"},"geometry":{"type":"Point","coordinates":[138.91666666667,-4.4666666666667]}},{"type":"Feature","properties":{"island":"New Guinea","locality":"Ansoedoe (Ansudu)","stateProvince":"NE Papua","verbatimCoordinates":"-2,00000000 139,33333330"},"geometry":{"type":"Point","coordinates":[139.3333333,-2]}},{"type":"Feature","properties":{"island":"Yapen","locality":"Ansus (Ansoes)","stateProvince":"Schouten Islands","verbatimCoordinates":"-1\u00b044 135\u00b049"},"geometry":{"type":"Point","coordinates":[135.81666666667,-1.7333333333333]}},{"type":"Feature","properties":{"island":"Ansus","locality":"Ansus Island (nr Yapen)","stateProvince":"Schouten Islands","verbatimCoordinates":"-1 135"},"geometry":{"type":"Point","coordinates":[135,-1]}},{"type":"Feature","properties":{"island":"Yapen","locality":"Antunai","stateProvince":"Schouten Islands","verbatimCoordinates":"-1 135"},"geometry":{"type":"Point","coordinates":[135,-1]}},{"type":"Feature","properties":{"island":"Anus","locality":"Anus Island","stateProvince":"NE Papua","verbatimCoordinates":"-2 139\u00b03"},"geometry":{"type":"Point","coordinates":[139.05,-2]}},{"type":"Feature","properties":{"island":"New Guinea","locality":"Apalapsili (Apalapsilli)","stateProvince":"Jayawijaya Mountains","verbatimCoordinates":"-3\u00b055 139\u00b02"},"geometry":{"type":"Point","coordinates":[139.03333333333,-3.9166666666667]}},{"type":"Feature","properties":{"island":"New Guinea","locality":"Apauwar (Apaoewar, Apauwor)","verbatimCoordinates":"-1,65000000 138,18333330"},"geometry":{"type":"Point","coordinates":[138.1833333,-1.65]}},{"type":"Feature","properties":{"island":"Waigeo","locality":"Apibok","stateProvince":"Raja Ampat Islands","verbatimCoordinates":"-0\u00b030 130\u00b023","georeferenceSources":"Nelles Map - Indonesia (Papua, Maluku)"},"geometry":{"type":"Point","coordinates":[130.38333333333,-0.5]}},{"type":"Feature","properties":{"island":"New Guinea","locality":"Apowo","stateProvince":"Kobowre (Weyland) Mountains","verbatimCoordinates":"-4\u00b004 135\u00b034"},"geometry":{"type":"Point","coordinates":[135.56666666667,-4.0666666666667]}},{"type":"Feature","properties":{"island":"New Guinea","locality":"Araboebivak (Arabu Camp)","stateProvince":"Paniai District (Wissel Lakes)","verbatimCoordinates":"-3\u00b040 136\u00b040","verbatimAltitude":"1750"},"geometry":{"type":"Point","coordinates":[136.66666666667,-3.6666666666667]}},{"type":"Feature","properties":{"island":"New Guinea","locality":"Arabu, near Wettamotti and Kumopa in Arandora","stateProvince":"Paniai District (Wissel Lakes)","verbatimCoordinates":"-3,8122 136,4708"},"geometry":{"type":"Point","coordinates":[136.4708,-3.8122]}},{"type":"Feature","properties":{"island":"New Guinea","locality":"Aramsolki (Aramsoliki)","stateProvince":"Lorentz Reserve","verbatimCoordinates":"-4\u00b036 137\u00b039"},"geometry":{"type":"Point","coordinates":[137.65,-4.6]}},{"type":"Feature","properties":{"island":"New Guinea","locality":"Arandai","stateProvince":"S Birdshead Peninsula","verbatimCoordinates":"-2 133"},"geometry":{"type":"Point","coordinates":[133,-2]}},{"type":"Feature","properties":{"island":"Misool","locality":"Araseta","stateProvince":"Raja Ampat Islands","verbatimCoordinates":"-2\u00b001 129\u00b059","georeferenceSources":"Nelles Map - Indonesia (Papua, Maluku)"},"geometry":{"type":"Point","coordinates":[129.98333333333,-2.0166666666667]}},{"type":"Feature","properties":{"island":"New Guinea","locality":"Araucaria Camp (Archbold Exp.)","stateProvince":"Jayawijaya Mountains","verbatimCoordinates":"-3\u00b030 139\u00b011","verbatimAltitude":"800-850","georeferenceSources":"Toxopeus (1940)"},"geometry":{"type":"Point","coordinates":[139.18333333333,-3.5]}},{"type":"Feature","properties":{"island":"New Guinea","locality":"Arbuejo, Tamrau Mountains","stateProvince":"N Birdshead Peninsula","verbatimCoordinates":"-0\u00b037 133\u00b007","verbatimAltitude":"200"},"geometry":{"type":"Point","coordinates":[133.11666666667,-0.61666666666667]}},{"type":"Feature","properties":{"island":"New Guinea","locality":"Archbold Lake","stateProvince":"Jayawijaya (Central) Mountains","verbatimCoordinates":"-3\u00b041 138\u00b053","verbatimAltitude":"760","georeferenceSources":"Toxopeus (1940)"},"geometry":{"type":"Point","coordinates":[138.88333333333,-3.6833333333333]}},{"type":"Feature","properties":{"island":"New Guinea","locality":"Archbold Lake","stateProvince":"Jayawijaya (Central) Mountains","verbatimCoordinates":"-3\u00b055 138\u00b030","verbatimAltitude":"700","georeferenceSources":"Bordoni (2009)"},"geometry":{"type":"Point","coordinates":[138.5,-3.9166666666667]}},{"type":"Feature","properties":{"island":"New Guinea","locality":"Aredo","stateProvince":"SW Papua","verbatimCoordinates":"-2 133"},"geometry":{"type":"Point","coordinates":[133,-2]}},{"type":"Feature","properties":{"island":"New Guinea","locality":"Arfak Mountains","stateProvince":"Arfak Mountains (NE Birdshead Peninsula)","verbatimCoordinates":"-1,12 134,0","verbatimAltitude":"1200"},"geometry":{"type":"Point","coordinates":[134,-1.12]}},{"type":"Feature","properties":{"island":"New Guinea","locality":"Argoeni (Arguni) Bay","stateProvince":"N Bomberai Peninsula","verbatimCoordinates":"-3\u00b006 133\u00b042"},"geometry":{"type":"Point","coordinates":[133.7,-3.1]}},{"type":"Feature","properties":{"island":"Arguni","locality":"Arguni Island","stateProvince":"Onin (Fakfak) Peninsula","verbatimCoordinates":"-2 132"},"geometry":{"type":"Point","coordinates":[132,-2]}},{"type":"Feature","properties":{"island":"New Guinea","locality":"Aria","stateProvince":"Tiyo (Charles Louis) Mountains","verbatimCoordinates":"-4\u00b018 135\u00b021"},"geometry":{"type":"Point","coordinates":[135.35,-4.3]}},{"type":"Feature","properties":{"island":"New Guinea","locality":"Aribore","stateProvince":"C Birdshead Peninsula","verbatimCoordinates":"-1 132"},"geometry":{"type":"Point","coordinates":[132,-1]}},{"type":"Feature","properties":{"island":"Biak","locality":"Arires","stateProvince":"Schouten Islands","verbatimCoordinates":"-0 136"},"geometry":{"type":"Point","coordinates":[136,-0]}},{"type":"Feature","properties":{"island":"New Guinea","locality":"Armina","stateProvince":"Wandammen Peninsula","verbatimCoordinates":"-2\u00b059 134\u00b042"},"geometry":{"type":"Point","coordinates":[134.7,-2.9833333333333]}},{"type":"Feature","properties":{"island":"New Guinea","locality":"Armopa (Bonggo)","stateProvince":"NE Papua","verbatimCoordinates":"-2\u00b016 139\u00b034"},"geometry":{"type":"Point","coordinates":[139.56666666667,-2.2666666666667]}},{"type":"Feature","properties":{"island":"New Guinea","locality":"Aroa (NOT PNG!)","stateProvince":"Sudirman (Snow) Mountains","verbatimCoordinates":"-4\u00b006 137\u00b05"},"geometry":{"type":"Point","coordinates":[137.08333333333,-4.1]}},{"type":"Feature","properties":{"island":"New Guinea","locality":"Aropen","stateProvince":"Wandammen Peninsula","verbatimCoordinates":"-2 134"},"geometry":{"type":"Point","coordinates":[134,-2]}},{"type":"Feature","properties":{"island":"New Guinea","locality":"Arso River","stateProvince":"NE Papua","verbatimCoordinates":"-2,933 140,783"},"geometry":{"type":"Point","coordinates":[140.783,-2.933]}},{"type":"Feature","properties":{"island":"New Guinea","locality":"Arso, Arso District","stateProvince":"NE Papua","verbatimCoordinates":"-2\u00b056 140\u00b047"},"geometry":{"type":"Point","coordinates":[140.78333333333,-2.9333333333333]}},{"type":"Feature","properties":{"island":"New Guinea","locality":"Arsom River downstreams, Tami R., upstreams","stateProvince":"NE Papua","verbatimCoordinates":"-2,736 140,836"},"geometry":{"type":"Point","coordinates":[140.836,-2.736]}},{"type":"Feature","properties":{"island":"New Guinea","locality":"Arui, Bukit","stateProvince":"N Birdshead Peninsula","verbatimCoordinates":"-0,83 133,08"},"geometry":{"type":"Point","coordinates":[133.08,-0.83]}},{"type":"Feature","properties":{"island":"Aruri","locality":"Aruri Island (nr Supiori)","stateProvince":"Schouten Islands","verbatimCoordinates":"-0 135"},"geometry":{"type":"Point","coordinates":[135,-0]}},{"type":"Feature","properties":{"island":"Biak","locality":"Arwe, central N Biak","stateProvince":"Schouten Islands","verbatimCoordinates":"-0,93330000 135,98330000"},"geometry":{"type":"Point","coordinates":[135.9833,-0.9333]}},{"type":"Feature","properties":{"island":"Asap","locality":"Asap Island","stateProvince":"Bomberai Peninsula","verbatimCoordinates":"-2 133"},"geometry":{"type":"Point","coordinates":[133,-2]}},{"type":"Feature","properties":{"island":"New Guinea","locality":"Asbakin","stateProvince":"NW Birdshead Peninsula","verbatimCoordinates":"-0 131"},"geometry":{"type":"Point","coordinates":[131,-0]}},{"type":"Feature","properties":{"island":"Asia Islands","locality":"Asia-eilanden","stateProvince":"Asia Islands (N of Raja Ampat Isl.)","verbatimCoordinates":"+1\u00b003 131\u00b020","georeferenceSources":"Nelles Map - Indonesia (Papua, Maluku)"},"geometry":{"type":"Point","coordinates":[131.33333333333,0]}},{"type":"Feature","properties":{"island":"New Guinea","locality":"Asike","stateProvince":"Merauke Area","verbatimCoordinates":"-6\u00b039 140\u00b024"},"geometry":{"type":"Point","coordinates":[140.4,-6.65]}},{"type":"Feature","properties":{"island":"New Guinea","locality":"Asmat","stateProvince":"Casuarine Coast","verbatimCoordinates":"-5\u00b05 138\u00b03"},"geometry":{"type":"Point","coordinates":[138.05,-5.0833333333333]}},{"type":"Feature","properties":{"island":"New Guinea","locality":"Asori","stateProvince":"Nabire District","verbatimCoordinates":"-2 136"},"geometry":{"type":"Point","coordinates":[136,-2]}},{"type":"Feature","properties":{"island":"New Guinea","locality":"Ati Ati Onin (Atti Atti Onin)","stateProvince":"Onin (Fakfak) Peninsula","verbatimCoordinates":"-2\u00b055 132\u00b009"},"geometry":{"type":"Point","coordinates":[132.15,-2.9166666666667]}},{"type":"Feature","properties":{"island":"New Guinea","locality":"Atinyu","stateProvince":"C Birdshead Peninsula","verbatimCoordinates":"-1 132"},"geometry":{"type":"Point","coordinates":[132,-1]}},{"type":"Feature","properties":{"island":"Misool","locality":"Atkri","stateProvince":"Raja Ampat Islands","verbatimCoordinates":"-1\u00b045 130\u00b002","georeferenceSources":"Nelles Map - Indonesia (Papua, Maluku)"},"geometry":{"type":"Point","coordinates":[130.03333333333,-1.75]}},{"type":"Feature","properties":{"island":"New Guinea","locality":"Atuka","stateProvince":"Casuarine Coast","verbatimCoordinates":"-4 136"},"geometry":{"type":"Point","coordinates":[136,-4]}},{"type":"Feature","properties":{"island":"Waigeo","locality":"Augusta","stateProvince":"Raja Ampat Islands","verbatimCoordinates":"-0\u00b039 130\u00b034","georeferenceSources":"Nelles Map - Indonesia (Papua, Maluku)"},"geometry":{"type":"Point","coordinates":[130.56666666667,-0.65]}},{"type":"Feature","properties":{"island":"Auki","locality":"Auki Island (Padaido Islands)","stateProvince":"Schouten Islands","verbatimCoordinates":"-1 136"},"geometry":{"type":"Point","coordinates":[136,-1]}},{"type":"Feature","properties":{"island":"Auri","locality":"Auri Island","stateProvince":"Cenderawasih Bay (Geelvink Baai)","verbatimCoordinates":"-1 134"},"geometry":{"type":"Point","coordinates":[134,-1]}},{"type":"Feature","properties":{"island":"New Guinea","locality":"Aurimi","stateProvince":"Foya (Gauttier) Mountains","verbatimCoordinates":"-2\u00b011 138\u00b027"},"geometry":{"type":"Point","coordinates":[138.45,-2.1833333333333]}},{"type":"Feature","properties":{"island":"New Guinea","locality":"Auta (Aoeta)","stateProvince":"Kobowre (Weyland) Mountains","verbatimCoordinates":"-4,55000000 136,00000000"},"geometry":{"type":"Point","coordinates":[136,-4.55]}},{"type":"Feature","properties":{"island":"Yapen","locality":"Awek","stateProvince":"Schouten Islands","verbatimCoordinates":"-1\u00b045 136\u00b015"},"geometry":{"type":"Point","coordinates":[136.25,-1.75]}},{"type":"Feature","properties":{"island":"New Guinea","locality":"Ayamaru","stateProvince":"C Birdshead Peninsula","verbatimCoordinates":"-1\u00b017 132\u00b012"},"geometry":{"type":"Point","coordinates":[132.2,-1.2833333333333]}},{"type":"Feature","properties":{"island":"New Guinea","locality":"Ayamaru Plateau","stateProvince":"C Birdshead Peninsula","verbatimCoordinates":"-1 132"},"geometry":{"type":"Point","coordinates":[132,-1]}},{"type":"Feature","properties":{"island":"New Guinea","locality":"Ayata","stateProvince":"C Birdshead Peninsula","verbatimCoordinates":"-1\u00b018 132\u00b039"},"geometry":{"type":"Point","coordinates":[132.65,-1.3]}},{"type":"Feature","properties":{"island":"New Guinea","locality":"Ayawasi","stateProvince":"C Birdshead Peninsula","verbatimCoordinates":"-1\u00b009 132\u00b027"},"geometry":{"type":"Point","coordinates":[132.45,-1.15]}},{"type":"Feature","properties":{"island":"New Guinea","locality":"Ayem, 60 km NE of Agats","stateProvince":"Casuarine Coast","verbatimCoordinates":"-5 138"},"geometry":{"type":"Point","coordinates":[138,-5]}},{"type":"Feature","properties":{"island":"Batanta","locality":"Ayemi","stateProvince":"Raja Ampat Islands","verbatimCoordinates":"-0\u00b049 130\u00b054","georeferenceSources":"Nelles Map - Indonesia (Papua, Maluku)"},"geometry":{"type":"Point","coordinates":[130.9,-0.81666666666667]}},{"type":"Feature","properties":{"island":"Ayu","locality":"Ayu Island (Ayu Islands)","stateProvince":"Raja Ampat Islands","verbatimCoordinates":"0\u00b023 131\u00b003","georeferenceSources":"Nelles Map - Indonesia (Papua, Maluku)"},"geometry":{"type":"Point","coordinates":[131.05,0.38333333333333]}},{"type":"Feature","properties":{"island":"Kanobe","locality":"Ayu Islands","stateProvince":"Raja Ampat Islands","verbatimCoordinates":"+0\u00b030 131\u00b009","georeferenceSources":"Nelles Map - Indonesia (Papua, Maluku)"},"geometry":{"type":"Point","coordinates":[131.15,0]}},{"type":"Feature","properties":{"island":"Reni","locality":"Ayu Islands","stateProvince":"Raja Ampat Islands","verbatimCoordinates":"+0\u00b035 131\u00b013","georeferenceSources":"Nelles Map - Indonesia (Papua, Maluku)"},"geometry":{"type":"Point","coordinates":[131.21666666667,0]}},{"type":"Feature","properties":{"island":"Kofiau","locality":"Ayuan","stateProvince":"Raja Ampat Islands","verbatimCoordinates":"-1\u00b015 129\u00b045","georeferenceSources":"Nelles Map - Indonesia (Papua, Maluku)"},"geometry":{"type":"Point","coordinates":[129.75,-1.25]}},{"type":"Feature","properties":{"island":"New Guinea","locality":"Babo","stateProvince":"Bomberai Peninsula","verbatimCoordinates":"-2\u00b033 133\u00b025"},"geometry":{"type":"Point","coordinates":[133.41666666667,-2.55]}},{"type":"Feature","properties":{"island":"New Guinea","locality":"Bade","stateProvince":"Lower Digul River","verbatimCoordinates":"-7\u00b01 139\u00b034"},"geometry":{"type":"Point","coordinates":[139.56666666667,-7.0166666666667]}},{"type":"Feature","properties":{"island":"New Guinea","locality":"Bagia (Bagea), Arso District","stateProvince":"NE Papua","verbatimCoordinates":"-3\u00b000 140\u00b05"},"geometry":{"type":"Point","coordinates":[140.08333333333,-3]}},{"type":"Feature","properties":{"island":"New Guinea","locality":"Bakaro","stateProvince":"NE Birdshead Peninsula","verbatimCoordinates":"-0,87 134,1"},"geometry":{"type":"Point","coordinates":[134.1,-0.87]}},{"type":"Feature","properties":{"island":"New Guinea","locality":"Bakoesa","stateProvince":"Lower Mamberamo","verbatimCoordinates":"-1,83300000 137,81700000"},"geometry":{"type":"Point","coordinates":[137.817,-1.833]}},{"type":"Feature","properties":{"island":"Balabalak","locality":"Balabalak Island","stateProvince":"Raja Ampat Islands","verbatimCoordinates":"0\u00b005 130\u00b002","verbatimAltitude":"0-358","georeferenceSources":"Nelles Map - Indonesia (Papua, Maluku)"},"geometry":{"type":"Point","coordinates":[130.03333333333,0.083333333333333]}},{"type":"Feature","properties":{"island":"Valse Pisang Islands","locality":"Balbileget","stateProvince":"Raja Ampat Islands","verbatimCoordinates":"-2\u00b005 130\u00b030","georeferenceSources":"Nelles Map - Indonesia (Papua, Maluku)"},"geometry":{"type":"Point","coordinates":[130.5,-2.0833333333333]}},{"type":"Feature","properties":{"island":"New Guinea","locality":"Balem George","stateProvince":"Jayawijaya Mountains","verbatimCoordinates":"-4,50000000 139,30000000"},"geometry":{"type":"Point","coordinates":[139.3,-4.5]}},{"type":"Feature","properties":{"island":"New Guinea","locality":"Baliem River","stateProvince":"Baliem Valley","verbatimCoordinates":"-4,41666667 138,98333333"},"geometry":{"type":"Point","coordinates":[138.98333333,-4.41666667]}},{"type":"Feature","properties":{"island":"New Guinea","locality":"Baliem Valley [Balim Valley]","stateProvince":"Baliem Valley","verbatimCoordinates":"-4,41700000 138,98300000"},"geometry":{"type":"Point","coordinates":[138.983,-4.417]}},{"type":"Feature","properties":{"island":"New Guinea","locality":"Baliemkamp (Baliem River Camp) (Archbold Exp.)","stateProvince":"Baliem Valley","verbatimCoordinates":"-4\u00b012 139\u00b002","verbatimAltitude":"1500","georeferenceSources":"Toxopeus (1940)"},"geometry":{"type":"Point","coordinates":[139.03333333333,-4.2]}},{"type":"Feature","properties":{"island":"Valse Pisang Islands","locality":"Balok","stateProvince":"Raja Ampat Islands","verbatimCoordinates":"-2\u00b014 130\u00b021","georeferenceSources":"Nelles Map - Indonesia (Papua, Maluku)"},"geometry":{"type":"Point","coordinates":[130.35,-2.2333333333333]}},{"type":"Feature","properties":{"island":"New Guinea","locality":"Bamfot","stateProvince":"N Birdshead Peninsula","verbatimCoordinates":"-0,73 132,355"},"geometry":{"type":"Point","coordinates":[132.355,-0.73]}},{"type":"Feature","properties":{"island":"New Guinea","locality":"Bamkeri","stateProvince":"NW Birdshead Peninsula","verbatimCoordinates":"-1 131"},"geometry":{"type":"Point","coordinates":[131,-1]}},{"type":"Feature","properties":{"island":"New Guinea","locality":"Bamsam, Bukit","stateProvince":"N Birdshead Peninsula","verbatimCoordinates":"-0,8 133,06"},"geometry":{"type":"Point","coordinates":[133.06,-0.8]}},{"type":"Feature","properties":{"island":"New Guinea","locality":"Bareri","stateProvince":"Van Rees Mountains","verbatimCoordinates":"-3\u00b003 137\u00b048"},"geometry":{"type":"Point","coordinates":[137.8,-3.05]}},{"type":"Feature","properties":{"island":"New Guinea","locality":"Barma","stateProvince":"S Birdshead Peninsula","verbatimCoordinates":"-1 133"},"geometry":{"type":"Point","coordinates":[133,-1]}},{"type":"Feature","properties":{"island":"New Guinea","locality":"Baru (Baroe)","stateProvince":"Birdshead Peninsula","verbatimCoordinates":"-1\u00b043 132\u00b011"},"geometry":{"type":"Point","coordinates":[132.18333333333,-1.7166666666667]}},{"type":"Feature","properties":{"island":"Biak","locality":"Base Biak, W of Sorido (Soredo)","stateProvince":"Schouten Islands","verbatimCoordinates":"-1\u00b009 136\u00b000"},"geometry":{"type":"Point","coordinates":[136,-1.15]}},{"type":"Feature","properties":{"island":"New Guinea","locality":"Base Camp, Utakwa (Oetakwa) River","stateProvince":"Sudirman (Snow) Mountains","verbatimCoordinates":"-4\u00b045 137\u00b014","verbatimAltitude":"0","georeferenceSources":"Wollaston Expedition"},"geometry":{"type":"Point","coordinates":[137.23333333333,-4.75]}},{"type":"Feature","properties":{"island":"New Guinea","locality":"Basiem","stateProvince":"Casuarina Coast","verbatimCoordinates":"-6\u00b003 138\u00b023"},"geometry":{"type":"Point","coordinates":[138.38333333333,-6.05]}},{"type":"Feature","properties":{"island":"New Guinea","locality":"Bataf (Betaf)","stateProvince":"NE Papua","verbatimCoordinates":"-2\u00b008 139\u00b015"},"geometry":{"type":"Point","coordinates":[139.25,-2.1333333333333]}},{"type":"Feature","properties":{"island":"Batangpele","locality":"Batangpele Island","stateProvince":"Raja Ampat Islands","verbatimCoordinates":"-0\u00b019 130\u00b014","verbatimAltitude":"0-358","georeferenceSources":"Nelles Map - Indonesia (Papua, Maluku)"},"geometry":{"type":"Point","coordinates":[130.23333333333,-0.31666666666667]}},{"type":"Feature","properties":{"island":"Batanta","locality":"Batanta island","stateProvince":"Raja Ampat Islands","verbatimCoordinates":"-0\u00b055 130\u00b035","verbatimAltitude":"0-1183","georeferenceSources":"Nelles Map - Indonesia (Papua, Maluku)"},"geometry":{"type":"Point","coordinates":[130.58333333333,-0.91666666666667]}},{"type":"Feature","properties":{"island":"New Guinea","locality":"Batavia falls, Mamberamo R","stateProvince":"Foja Mountains","verbatimCoordinates":"-2,608 138,36697"},"geometry":{"type":"Point","coordinates":[138.36697,-2.608]}},{"type":"Feature","properties":{"island":"New Guinea","locality":"Batiem (= Baliem)","stateProvince":"Baliem Valley","verbatimCoordinates":"-4,4166667 138,9833333"},"geometry":{"type":"Point","coordinates":[138.9833333,-4.4166667]}},{"type":"Feature","properties":{"island":"New Guinea","locality":"Batimban","stateProvince":"Star Mountains","verbatimCoordinates":"-4\u00b037 140\u00b031"},"geometry":{"type":"Point","coordinates":[140.51666666667,-4.6166666666667]}},{"type":"Feature","properties":{"island":"New Guinea","locality":"Batimban, River Mong","stateProvince":"Star Mountains","verbatimCoordinates":"-4\u00b037 140\u00b032"},"geometry":{"type":"Point","coordinates":[140.53333333333,-4.6166666666667]}},{"type":"Feature","properties":{"island":"New Guinea","locality":"Batimban, River Okkim","stateProvince":"Star Mountains","verbatimCoordinates":"-4\u00b037 140\u00b032"},"geometry":{"type":"Point","coordinates":[140.53333333333,-4.6166666666667]}},{"type":"Feature","properties":{"island":"New Guinea","locality":"Batimban, Sabin, River Raleplina","stateProvince":"Star Mountains","verbatimCoordinates":"-4\u00b037 140\u00b032"},"geometry":{"type":"Point","coordinates":[140.53333333333,-4.6166666666667]}},{"type":"Feature","properties":{"island":"New Guinea","locality":"Batissan","stateProvince":"SE Birdshead Peninsula","verbatimCoordinates":"-2,44750000 133,53388890"},"geometry":{"type":"Point","coordinates":[133.5338889,-2.4475]}},{"type":"Feature","properties":{"island":"Valse Pisang Islands","locality":"Batu","stateProvince":"Raja Ampat Islands","verbatimCoordinates":"-2,08 130\u00b021","georeferenceSources":"Nelles Map - Indonesia (Papua, Maluku)"},"geometry":{"type":"Point","coordinates":[130.35,-2.08]}},{"type":"Feature","properties":{"island":"Misool","locality":"Batu Enget","stateProvince":"Raja Ampat Islands","verbatimCoordinates":"-1\u00b047 129\u00b042","georeferenceSources":"Nelles Map - Indonesia (Papua, Maluku)"},"geometry":{"type":"Point","coordinates":[129.7,-1.7833333333333]}},{"type":"Feature","properties":{"island":"New Guinea","locality":"Batu Kapur","stateProvince":"NE Birdshead Peninsula","verbatimCoordinates":"-0,98 134,07"},"geometry":{"type":"Point","coordinates":[134.07,-0.98]}},{"type":"Feature","properties":{"island":"Valse Pisang Islands","locality":"Batu Karang Hitam","stateProvince":"Raja Ampat Islands","verbatimCoordinates":"-2\u00b004 130\u00b050","georeferenceSources":"Nelles Map - Indonesia (Papua, Maluku)"},"geometry":{"type":"Point","coordinates":[130.83333333333,-2.0666666666667]}},{"type":"Feature","properties":{"island":"Sariga Islands","locality":"Batu Layar","stateProvince":"Onin (Fakfak) Peninsula","verbatimCoordinates":"-2,70000000 132,63333330"},"geometry":{"type":"Point","coordinates":[132.6333333,-2.7]}},{"type":"Feature","properties":{"island":"New Guinea","locality":"Batu Putih, Bukit","stateProvince":"NE Birdshead Peninsula","verbatimCoordinates":"-0,98 134,17"},"geometry":{"type":"Point","coordinates":[134.17,-0.98]}},{"type":"Feature","properties":{"island":"New Guinea","locality":"Bawe","stateProvince":"NW Birdshead Peninsula","verbatimCoordinates":"-0 131"},"geometry":{"type":"Point","coordinates":[131,-0]}},{"type":"Feature","properties":{"island":"New Guinea","locality":"Bawe","stateProvince":"E Wandammen Peninsula","verbatimCoordinates":"-2\u00b059 134\u00b042"},"geometry":{"type":"Point","coordinates":[134.7,-2.9833333333333]}},{"type":"Feature","properties":{"island":"Numfoor","locality":"Bawe","stateProvince":"Schouten Islands","verbatimCoordinates":"-0 135"},"geometry":{"type":"Point","coordinates":[135,-0]}},{"type":"Feature","properties":{"island":"Waigeo","locality":"Bayon River","stateProvince":"Raja Ampat Islands","verbatimCoordinates":"-0\u00b007 130\u00b053","georeferenceSources":"Nelles Map - Indonesia (Papua, Maluku)"},"geometry":{"type":"Point","coordinates":[130.88333333333,-0.11666666666667]}},{"type":"Feature","properties":{"island":"New Guinea","locality":"Bayun","stateProvince":"Caruarin Coast","verbatimCoordinates":"-6\u00b011 138\u00b023"},"geometry":{"type":"Point","coordinates":[138.38333333333,-6.1833333333333]}},{"type":"Feature","properties":{"island":"New Guinea","locality":"Beaufort Bivak","stateProvince":"Baliem Valley","verbatimCoordinates":"-4\u00b036 138\u00b048"},"geometry":{"type":"Point","coordinates":[138.8,-4.6]}},{"type":"Feature","properties":{"island":"New Guinea","locality":"Beaufort River","stateProvince":"Baliem Valley","verbatimCoordinates":"-4,604 138,703"},"geometry":{"type":"Point","coordinates":[138.703,-4.604]}},{"type":"Feature","properties":{"island":"New Guinea","locality":"Bebiram","stateProvince":"S Birdshead Peninsula","verbatimCoordinates":"-2\u00b012 132\u00b042"},"geometry":{"type":"Point","coordinates":[132.7,-2.2]}},{"type":"Feature","properties":{"island":"New Guinea","locality":"Bedidi River","stateProvince":"Bomberai Peninsula","verbatimCoordinates":"-2,78333330 132,78333330"},"geometry":{"type":"Point","coordinates":[132.7833333,-2.7833333]}},{"type":"Feature","properties":{"island":"Valse Pisang Islands","locality":"Beem","stateProvince":"Raja Ampat Islands","verbatimCoordinates":"-2\u00b006 130\u00b026","georeferenceSources":"Nelles Map - Indonesia (Papua, Maluku)"},"geometry":{"type":"Point","coordinates":[130.43333333333,-2.1]}},{"type":"Feature","properties":{"island":"New Guinea","locality":"Begoure (Beguwre)","stateProvince":"NE Papua","verbatimCoordinates":"-2,973 140,955"},"geometry":{"type":"Point","coordinates":[140.955,-2.973]}},{"type":"Feature","properties":{"island":"New Guinea","locality":"Beguwri River","stateProvince":"NE Papua","verbatimCoordinates":"-2,973 140,955"},"geometry":{"type":"Point","coordinates":[140.955,-2.973]}},{"type":"Feature","properties":{"island":"New Guinea","locality":"Bekorrat (Arguni Bay)","stateProvince":"SW Papua","verbatimCoordinates":"-3 133"},"geometry":{"type":"Point","coordinates":[133,-3]}},{"type":"Feature","properties":{"island":"Valse Pisang Islands","locality":"Belal","stateProvince":"Raja Ampat Islands","verbatimCoordinates":"-2,05 130\u00b007","georeferenceSources":"Nelles Map - Indonesia (Papua, Maluku)"},"geometry":{"type":"Point","coordinates":[130.11666666667,-2.05]}},{"type":"Feature","properties":{"island":"New Guinea","locality":"Bele River, 10 km NE of Lake Habbema","stateProvince":"Jayawijaya Mountains","verbatimCoordinates":"-3,98 138,76"},"geometry":{"type":"Point","coordinates":[138.76,-3.98]}},{"type":"Feature","properties":{"island":"New Guinea","locality":"Bemes","stateProvince":"E Birdshead Peninsula","verbatimCoordinates":"-1\u00b036 133\u00b041"},"geometry":{"type":"Point","coordinates":[133.68333333333,-1.6]}},{"type":"Feature","properties":{"island":"New Guinea","locality":"Beneden Mistkamp (Lower Mist Camp) (Archbold Exp.)","stateProvince":"Rouffaer Area","verbatimCoordinates":"-3\u00b030 139\u00b005","verbatimAltitude":"1550-1700","georeferenceSources":"Toxopeus (1940)"},"geometry":{"type":"Point","coordinates":[139.08333333333,-3.5]}},{"type":"Feature","properties":{"island":"New Guinea","locality":"Benina","stateProvince":"Bomberai Peninsula","verbatimCoordinates":"-2,42333330 133,20944440"},"geometry":{"type":"Point","coordinates":[133.2094444,-2.4233333]}},{"type":"Feature","properties":{"island":"New Guinea","locality":"Benno","stateProvince":"Onin (Fakfak) Peninsula","verbatimCoordinates":"-2 132"},"geometry":{"type":"Point","coordinates":[132,-2]}},{"type":"Feature","properties":{"island":"New Guinea","locality":"Benyas [Neney Valley]","stateProvince":"Arfak Mountains (NE Birdshead Peninsula)","verbatimCoordinates":"-1\u00b027 134\u00b001","verbatimAltitude":"722","georeferenceSources":"GPS, PIF expedition 2011"},"geometry":{"type":"Point","coordinates":[134.01666666667,-1.45]}},{"type":"Feature","properties":{"island":"New Guinea","locality":"Beoga","stateProvince":"W Rouffaer Area","verbatimCoordinates":"-3\u00b039 137\u00b030"},"geometry":{"type":"Point","coordinates":[137.5,-3.65]}},{"type":"Feature","properties":{"island":"Bepondi","locality":"Bepondi Island","stateProvince":"Schouten Islands","verbatimCoordinates":"-0,40000000 135,25000000"},"geometry":{"type":"Point","coordinates":[135.25,-0.4]}},{"type":"Feature","properties":{"island":"New Guinea","locality":"Berap","stateProvince":"NE Papua","verbatimCoordinates":"-2\u00b045 140\u00b02"},"geometry":{"type":"Point","coordinates":[140.03333333333,-2.75]}},{"type":"Feature","properties":{"island":"New Guinea","locality":"Berari (Arguni Bay)","stateProvince":"SW Papua","verbatimCoordinates":"-3 133"},"geometry":{"type":"Point","coordinates":[133,-3]}},{"type":"Feature","properties":{"island":"New Guinea","locality":"Berim","stateProvince":"Onin Peninsula","verbatimCoordinates":"-2,91666670 131,96666670"},"geometry":{"type":"Point","coordinates":[131.9666667,-2.9166667]}},{"type":"Feature","properties":{"island":"New Guinea","locality":"Berkamboe, River Tor (Berkombor)","stateProvince":"Mamberamo Area","verbatimCoordinates":"-1\u00b059 138\u00b055"},"geometry":{"type":"Point","coordinates":[138.91666666667,-1.9833333333333]}},{"type":"Feature","properties":{"island":"New Guinea","locality":"Bernhard Camp (Archbold Exp.)","stateProvince":"Jayawijaya (Central) Mountains","verbatimCoordinates":"-3\u00b029 139\u00b013","verbatimAltitude":"50-450","georeferenceSources":"Toxopeus (1940)"},"geometry":{"type":"Point","coordinates":[139.21666666667,-3.4833333333333]}},{"type":"Feature","properties":{"island":"Gami","locality":"Besir","stateProvince":"Raja Ampat Islands","verbatimCoordinates":"-0\u00b029 130\u00b041","georeferenceSources":"Nelles Map - Indonesia (Papua, Maluku)"},"geometry":{"type":"Point","coordinates":[130.68333333333,-0.48333333333333]}},{"type":"Feature","properties":{"island":"New Guinea","locality":"Besum, Jayapura","stateProvince":"Jayapura Area","verbatimCoordinates":"-2\u00b046 140\u00b012","verbatimAltitude":"40","georeferenceSources":"Dr. A.J. de Boer (GPS)"},"geometry":{"type":"Point","coordinates":[140.2,-2.7666666666667]}},{"type":"Feature","properties":{"island":"New Guinea","locality":"Bets","stateProvince":"Casuarine Coast (Asmat district)","verbatimCoordinates":"-5,83333330 138,25000000"},"geometry":{"type":"Point","coordinates":[138.25,-5.8333333]}},{"type":"Feature","properties":{"island":"New Guinea","locality":"Bewani Mountains","stateProvince":"NE Papua","verbatimCoordinates":"-3 141"},"geometry":{"type":"Point","coordinates":[141,-3]}},{"type":"Feature","properties":{"island":"New Guinea","locality":"Bewani R. territ.","stateProvince":"NE Papua","verbatimCoordinates":"-3 141"},"geometry":{"type":"Point","coordinates":[141,-3]}},{"type":"Feature","properties":{"island":"Valse Pisang Islands","locality":"Bi Jef","stateProvince":"Raja Ampat Islands","verbatimCoordinates":"-2\u00b004 130\u00b009","georeferenceSources":"Nelles Map - Indonesia (Papua, Maluku)"},"geometry":{"type":"Point","coordinates":[130.15,-2.0666666666667]}},{"type":"Feature","properties":{"island":"Biak","locality":"Biak (city)","stateProvince":"Schouten Islands","verbatimCoordinates":"-1\u00b000 136\u00b000"},"geometry":{"type":"Point","coordinates":[136,-1]}},{"type":"Feature","properties":{"island":"Biak","locality":"Biak Island","stateProvince":"Schouten Islands","verbatimCoordinates":"-1\u00b000 136\u00b000","verbatimAltitude":"5-50"},"geometry":{"type":"Point","coordinates":[136,-1]}},{"type":"Feature","properties":{"island":"Waigeo","locality":"Biantsyi Besar","stateProvince":"Raja Ampat Islands","verbatimCoordinates":"-0\u00b019 130\u00b021","georeferenceSources":"Nelles Map - Indonesia (Papua, Maluku)"},"geometry":{"type":"Point","coordinates":[130.35,-0.31666666666667]}},{"type":"Feature","properties":{"island":"New Guinea","locality":"Bidai (Bilai)","stateProvince":"Jayawijaya (Central) Mountains","verbatimCoordinates":"-3\u00b044 136\u00b051","verbatimAltitude":"1620"},"geometry":{"type":"Point","coordinates":[136.85,-3.7333333333333]}},{"type":"Feature","properties":{"island":"Valse Pisang Islands","locality":"Big Mesloe","stateProvince":"Raja Ampat Islands","verbatimCoordinates":"-1\u00b031 130\u00b031","georeferenceSources":"Nelles Map - Indonesia (Papua, Maluku)"},"geometry":{"type":"Point","coordinates":[130.51666666667,-1.5166666666667]}},{"type":"Feature","properties":{"island":"Misool","locality":"Biga","stateProvince":"Raja Ampat Islands","verbatimCoordinates":"-2\u00b001 130\u00b015","georeferenceSources":"Nelles Map - Indonesia (Papua, Maluku)"},"geometry":{"type":"Point","coordinates":[130.25,-2.0166666666667]}},{"type":"Feature","properties":{"island":"New Guinea","locality":"Biguwri River","stateProvince":"NE Papua","verbatimCoordinates":"-2,973 140,955"},"geometry":{"type":"Point","coordinates":[140.955,-2.973]}},{"type":"Feature","properties":{"island":"New Guinea","locality":"Bijenkorf bivak (Beehive Camp)","stateProvince":"S Jayawijaya Mountains","verbatimCoordinates":"-4\u00b033 138\u00b040"},"geometry":{"type":"Point","coordinates":[138.66666666667,-4.55]}},{"type":"Feature","properties":{"island":"New Guinea","locality":"Bijenkorf bivak, S slope Hellwig Mts","stateProvince":"S Jayawijaya Mountains","verbatimCoordinates":"-4,521 138,677"},"geometry":{"type":"Point","coordinates":[138.677,-4.521]}},{"type":"Feature","properties":{"island":"New Guinea","locality":"Bilogai (Bidogai)","stateProvince":"Jayawijaya (Central) Mountains","verbatimCoordinates":"-3\u00b044 137\u00b001","verbatimAltitude":"2050"},"geometry":{"type":"Point","coordinates":[137.01666666667,-3.7333333333333]}},{"type":"Feature","properties":{"island":"New Guinea","locality":"Bime","stateProvince":"Jayawijaya Mountains","verbatimCoordinates":"-4\u00b030 140\u00b016","verbatimAltitude":"1600-1900","georeferenceSources":"Bordoni (2009)"},"geometry":{"type":"Point","coordinates":[140.26666666667,-4.5]}},{"type":"Feature","properties":{"island":"New Guinea","locality":"Bina","stateProvince":"N Sudirman (Snow) Mountains","verbatimCoordinates":"-3\u00b043 137\u00b039"},"geometry":{"type":"Point","coordinates":[137.65,-3.7166666666667]}},{"type":"Feature","properties":{"island":"New Guinea","locality":"Binigit","stateProvince":"NW Birdshead Peninsula","verbatimCoordinates":"-0 131"},"geometry":{"type":"Point","coordinates":[131,-0]}},{"type":"Feature","properties":{"island":"New Guinea","locality":"Bintuni (Steenkool)","stateProvince":"S Birdshead Peninsula","verbatimCoordinates":"-2\u00b007 133\u00b032"},"geometry":{"type":"Point","coordinates":[133.53333333333,-2.1166666666667]}},{"type":"Feature","properties":{"island":"New Guinea","locality":"Bintuni Bay. River Tisa","stateProvince":"S Birdshead Peninsula","verbatimCoordinates":"-2\u00b006 133\u00b03"},"geometry":{"type":"Point","coordinates":[133.05,-2.1]}},{"type":"Feature","properties":{"island":"New Guinea","locality":"Bipban, River Mu","verbatimCoordinates":"-4\u00b036 140\u00b030"},"geometry":{"type":"Point","coordinates":[140.5,-4.6]}},{"type":"Feature","properties":{"island":"New Guinea","locality":"Bipban, River Tapi","verbatimCoordinates":"-4\u00b037 140\u00b030"},"geometry":{"type":"Point","coordinates":[140.5,-4.6166666666667]}},{"type":"Feature","properties":{"island":"New Guinea","locality":"Birab","stateProvince":"Casuarine Coast","verbatimCoordinates":"-6,20000000 138,41666670"},"geometry":{"type":"Point","coordinates":[138.4166667,-6.2]}},{"type":"Feature","properties":{"island":"New Guinea","locality":"Biri","stateProvince":"Van Rees Mountains","verbatimCoordinates":"-2\u00b053 137\u00b046"},"geometry":{"type":"Point","coordinates":[137.76666666667,-2.8833333333333]}},{"type":"Feature","properties":{"island":"New Guinea","locality":"Birufu (Biroefoe)","stateProvince":"Casuarine Coast","verbatimCoordinates":"-5,86666670 138,40000000"},"geometry":{"type":"Point","coordinates":[138.4,-5.8666667]}},{"type":"Feature","properties":{"island":"New Guinea","locality":"Bisaisona","stateProvince":"SE Birdshead Peninsula","verbatimCoordinates":"-2,29833330 133,93333330"},"geometry":{"type":"Point","coordinates":[133.9333333,-2.2983333]}},{"type":"Feature","properties":{"island":"New Guinea","locality":"Bitsyaru","stateProvince":"SW Papua","verbatimCoordinates":"-3 133"},"geometry":{"type":"Point","coordinates":[133,-3]}},{"type":"Feature","properties":{"island":"New Guinea","locality":"Bitsyaru Bay","stateProvince":"SW Papua","verbatimCoordinates":"-3 133"},"geometry":{"type":"Point","coordinates":[133,-3]}},{"type":"Feature","properties":{"island":"New Guinea","locality":"Bivak 34","stateProvince":"Star Mountains","verbatimCoordinates":"-4\u00b050 140\u00b045"},"geometry":{"type":"Point","coordinates":[140.75,-4.8333333333333]}},{"type":"Feature","properties":{"island":"New Guinea","locality":"Bivak 39","stateProvince":"Star Mountains","verbatimCoordinates":"-4\u00b051 140\u00b046","verbatimAltitude":"1300"},"geometry":{"type":"Point","coordinates":[140.76666666667,-4.85]}},{"type":"Feature","properties":{"island":"New Guinea","locality":"Bivak 39A","stateProvince":"Star Mountains","verbatimCoordinates":"-4\u00b051 140\u00b047","verbatimAltitude":"1500"},"geometry":{"type":"Point","coordinates":[140.78333333333,-4.85]}},{"type":"Feature","properties":{"island":"New Guinea","locality":"Bivak 40","stateProvince":"Star Mountains","verbatimCoordinates":"-4\u00b051 140\u00b049"},"geometry":{"type":"Point","coordinates":[140.81666666667,-4.85]}},{"type":"Feature","properties":{"island":"New Guinea","locality":"Bivak Eiland 9 (Bivak Island, Eilanden Bivak)","stateProvince":"Casuarine Coast","verbatimCoordinates":"-5\u00b001 138\u00b039"},"geometry":{"type":"Point","coordinates":[138.65,-5.0166666666667]}},{"type":"Feature","properties":{"island":"New Guinea","locality":"Biwarlaut","stateProvince":"Digul River","verbatimCoordinates":"-5,75000000 140,36666670"},"geometry":{"type":"Point","coordinates":[140.3666667,-5.75]}},{"type":"Feature","properties":{"island":"New Guinea","locality":"Bodem, Sarmi area","stateProvince":"Mamberamo Area","verbatimCoordinates":"-1\u00b058 138\u00b044","verbatimAltitude":"100"},"geometry":{"type":"Point","coordinates":[138.73333333333,-1.9666666666667]}},{"type":"Feature","properties":{"island":"New Guinea","locality":"Bodim","stateProvince":"NE Papua","verbatimCoordinates":"-2,28000000 138,83000000"},"geometry":{"type":"Point","coordinates":[138.83,-2.28]}},{"type":"Feature","properties":{"island":"Boo Islands","locality":"Bodo","stateProvince":"Raja Ampat Islands","verbatimCoordinates":"-1\u00b008 129\u00b020","georeferenceSources":"Nelles Map - Indonesia (Papua, Maluku)"},"geometry":{"type":"Point","coordinates":[129.33333333333,-1.1333333333333]}},{"type":"Feature","properties":{"island":"New Guinea","locality":"Bog Camp","stateProvince":"Foja Mountains (District Sarmi)","verbatimCoordinates":"-2\u00b034 138\u00b042","verbatimAltitude":"1650"},"geometry":{"type":"Point","coordinates":[138.7,-2.5666666666667]}},{"type":"Feature","properties":{"island":"New Guinea","locality":"Bokondini","stateProvince":"Jayawijaya (Central) Mountains","verbatimCoordinates":"-3\u00b038 138\u00b040","verbatimAltitude":"1300"},"geometry":{"type":"Point","coordinates":[138.66666666667,-3.6333333333333]}},{"type":"Feature","properties":{"island":"New Guinea","locality":"Boma (Bomakia)","stateProvince":"Asmat district","verbatimCoordinates":"-5\u00b048 139\u00b051"},"geometry":{"type":"Point","coordinates":[139.85,-5.8]}},{"type":"Feature","properties":{"island":"New Guinea","locality":"Bomakia, Mappi River","stateProvince":"Asmat district","verbatimCoordinates":"-6,00000000 139,95000000"},"geometry":{"type":"Point","coordinates":[139.95,-6]}},{"type":"Feature","properties":{"island":"New Guinea","locality":"Bomberai Peninsula (Bombarai)","stateProvince":"Bomberai Peninsula","verbatimCoordinates":"-2 132","verbatimAltitude":"100-900"},"geometry":{"type":"Point","coordinates":[132,-2]}},{"type":"Feature","properties":{"island":"New Guinea","locality":"Bomela","stateProvince":"Jayawijaya Mountains","verbatimCoordinates":"-4\u00b039 139\u00b054"},"geometry":{"type":"Point","coordinates":[139.9,-4.65]}},{"type":"Feature","properties":{"island":"Waigeo","locality":"Bomyai","stateProvince":"Raja Ampat Islands","verbatimCoordinates":"-0\u00b018 130\u00b050","georeferenceSources":"Nelles Map - Indonesia (Papua, Maluku)"},"geometry":{"type":"Point","coordinates":[130.83333333333,-0.3]}},{"type":"Feature","properties":{"island":"Valse Pisang Islands","locality":"Boo","stateProvince":"Raja Ampat Islands","verbatimCoordinates":"-2\u00b013 130\u00b035","georeferenceSources":"Nelles Map - Indonesia (Papua, Maluku)"},"geometry":{"type":"Point","coordinates":[130.58333333333,-2.2166666666667]}},{"type":"Feature","properties":{"island":"Boo Besar","locality":"Boo Besar Island (Aai Berar Besar, Boo Islands)","stateProvince":"Raja Ampat Islands","verbatimCoordinates":"-1\u00b008 129\u00b018","georeferenceSources":"Nelles Map - Indonesia (Papua, Maluku)"},"geometry":{"type":"Point","coordinates":[129.3,-1.1333333333333]}},{"type":"Feature","properties":{"island":"Boo Kecil","locality":"Boo Kecil Island (Aai Berar Kecil, Boo Islands)","stateProvince":"Raja Ampat Islands","verbatimCoordinates":"-1\u00b009 129\u00b025","georeferenceSources":"Nelles Map - Indonesia (Papua, Maluku)"},"geometry":{"type":"Point","coordinates":[129.41666666667,-1.15]}},{"type":"Feature","properties":{"island":"New Guinea","locality":"Bora Bora","stateProvince":"Foja Mountains","verbatimCoordinates":"-2\u00b017 138\u00b049"},"geometry":{"type":"Point","coordinates":[138.81666666667,-2.2833333333333]}},{"type":"Feature","properties":{"island":"New Guinea","locality":"Borme","stateProvince":"Star Mountains","verbatimCoordinates":"-4\u00b032 140\u00b030","verbatimAltitude":"800-900"},"geometry":{"type":"Point","coordinates":[140.5,-4.5333333333333]}},{"type":"Feature","properties":{"island":"New Guinea","locality":"Borobaida","stateProvince":"Kobowre Mountains (Nabire district)","verbatimCoordinates":"-3,738 136,4316667"},"geometry":{"type":"Point","coordinates":[136.4316667,-3.738]}},{"type":"Feature","properties":{"island":"New Guinea","locality":"Borto Kampong, Bodem River","stateProvince":"Mamberamo Area","verbatimCoordinates":"-2\u00b015 139\u00b000","verbatimAltitude":"95"},"geometry":{"type":"Point","coordinates":[139,-2.25]}},{"type":"Feature","properties":{"island":"Biak","locality":"Bosnabraidi","stateProvince":"Schouten Islands","verbatimCoordinates":"-0 136"},"geometry":{"type":"Point","coordinates":[136,-0]}},{"type":"Feature","properties":{"island":"Biak","locality":"Bosnik (Bosnek)","stateProvince":"Schouten Islands","verbatimCoordinates":"-1\u00b010 136\u00b014"},"geometry":{"type":"Point","coordinates":[136.23333333333,-1.1666666666667]}},{"type":"Feature","properties":{"island":"New Guinea","locality":"Botare","stateProvince":"S Birdshead Peninsula","verbatimCoordinates":"-2 133"},"geometry":{"type":"Point","coordinates":[133,-2]}},{"type":"Feature","properties":{"island":"New Guinea","locality":"Bougainville Mts., near the Tami mouth","stateProvince":"NE Papua","verbatimCoordinates":"-2,61 140,915"},"geometry":{"type":"Point","coordinates":[140.915,-2.61]}},{"type":"Feature","properties":{"island":"New Guinea","locality":"Brazza River","stateProvince":"SE Papua","verbatimCoordinates":"-5\u00b00 139\u00b03","verbatimAltitude":"250"},"geometry":{"type":"Point","coordinates":[139.05,-5]}},{"type":"Feature","properties":{"island":"New Guinea","locality":"Brievenbuskamp (Letterbox Camp), Mt Wilhelmina (Archbold Exp.)","stateProvince":"Baliem Valley","verbatimCoordinates":"-4\u00b013 138\u00b044","verbatimAltitude":"3560","georeferenceSources":"Toxopeus (1940)"},"geometry":{"type":"Point","coordinates":[138.73333333333,-4.2166666666667]}},{"type":"Feature","properties":{"island":"Bromsi","locality":"Bromsi Island (Padaido Islands)","stateProvince":"Schouten Islands","verbatimCoordinates":"-1\u00b013 136\u00b036","verbatimAltitude":"137"},"geometry":{"type":"Point","coordinates":[136.6,-1.2166666666667]}},{"type":"Feature","properties":{"island":"New Guinea","locality":"Budidi (Boedidi)","stateProvince":"Bomberai Peninsula","verbatimCoordinates":"-2,78333330 132,78333330"},"geometry":{"type":"Point","coordinates":[132.7833333,-2.7833333]}},{"type":"Feature","properties":{"island":"New Guinea","locality":"Bufareh, S of Sarmi","stateProvince":"Mamberamo Area","verbatimCoordinates":"-2\u00b015 138\u00b057","verbatimAltitude":"70"},"geometry":{"type":"Point","coordinates":[138.95,-2.25]}},{"type":"Feature","properties":{"island":"New Guinea","locality":"Bugalaga","stateProvince":"Paniai district","verbatimCoordinates":"-3\u00b039 136\u00b036"},"geometry":{"type":"Point","coordinates":[136.6,-3.65]}},{"type":"Feature","properties":{"island":"New Guinea","locality":"Bukit Bamsam","stateProvince":"NE Birdshead Peninsula (Manokwari district)","verbatimCoordinates":"-0,8 134,067"},"geometry":{"type":"Point","coordinates":[134.067,-0.8]}},{"type":"Feature","properties":{"island":"Kofiau","locality":"Bukit Monges","stateProvince":"Raja Ampat Islands","verbatimCoordinates":"-1\u00b011 129\u00b046","georeferenceSources":"Nelles Map - Indonesia (Papua, Maluku)"},"geometry":{"type":"Point","coordinates":[129.76666666667,-1.1833333333333]}},{"type":"Feature","properties":{"island":"Schildpad Islands","locality":"Buluyef","stateProvince":"Raja Ampat Islands","verbatimCoordinates":"-1,42611110 130,46250000"},"geometry":{"type":"Point","coordinates":[130.4625,-1.4261111]}},{"type":"Feature","properties":{"island":"New Guinea","locality":"Bupul (Boepoel)","stateProvince":"Merauke Area","verbatimCoordinates":"-7,51667 140,86667"},"geometry":{"type":"Point","coordinates":[140.86667,-7.51667]}},{"type":"Feature","properties":{"island":"New Guinea","locality":"Burumeso","stateProvince":"Van Rees Mountains","verbatimCoordinates":"-2\u00b042 138\u00b003"},"geometry":{"type":"Point","coordinates":[138.05,-2.7]}},{"type":"Feature","properties":{"island":"New Guinea","locality":"Butiptiri","stateProvince":"Merauke Area","verbatimCoordinates":"-6\u00b045 140\u00b059"},"geometry":{"type":"Point","coordinates":[140.98333333333,-6.75]}},{"type":"Feature","properties":{"island":"New Guinea","locality":"Butupitri","stateProvince":"E Papua (Tanahmerah district)","verbatimCoordinates":"-6\u00b026 140\u00b038"},"geometry":{"type":"Point","coordinates":[140.63333333333,-6.4333333333333]}},{"type":"Feature","properties":{"island":"New Guinea","locality":"Camp 1 (Wollaston Expedition)","stateProvince":"Sudirman (Snow) Mountains","verbatimCoordinates":"-4,491 137,303"},"geometry":{"type":"Point","coordinates":[137.303,-4.491]}},{"type":"Feature","properties":{"island":"New Guinea","locality":"Camp 10 (Wollaston Expedition)","stateProvince":"Sudirman (Snow) Mountains","verbatimCoordinates":"-4,181 137,21"},"geometry":{"type":"Point","coordinates":[137.21,-4.181]}},{"type":"Feature","properties":{"island":"New Guinea","locality":"Camp 11 (Wollaston Expedition)","stateProvince":"Sudirman (Snow) Mountains","verbatimCoordinates":"-4,141 137,208"},"geometry":{"type":"Point","coordinates":[137.208,-4.141]}},{"type":"Feature","properties":{"island":"New Guinea","locality":"Camp 12 (Wollaston Expedition)","stateProvince":"Sudirman (Snow) Mountains","verbatimCoordinates":"-4,112 137,199"},"geometry":{"type":"Point","coordinates":[137.199,-4.112]}},{"type":"Feature","properties":{"island":"New Guinea","locality":"Camp 13 (Wollaston Expedition)","stateProvince":"Sudirman (Snow) Mountains","verbatimCoordinates":"-4,104 137,18"},"geometry":{"type":"Point","coordinates":[137.18,-4.104]}},{"type":"Feature","properties":{"island":"New Guinea","locality":"Camp 14 (Wollaston Expedition)","stateProvince":"Sudirman (Snow) Mountains","verbatimCoordinates":"-4,096 137,171"},"geometry":{"type":"Point","coordinates":[137.171,-4.096]}},{"type":"Feature","properties":{"island":"New Guinea","locality":"Camp 2 (Wollaston Expedition)","stateProvince":"Sudirman (Snow) Mountains","verbatimCoordinates":"-4,465 137,265"},"geometry":{"type":"Point","coordinates":[137.265,-4.465]}},{"type":"Feature","properties":{"island":"New Guinea","locality":"Camp 3 (Wollaston Expedition)","stateProvince":"Sudirman (Snow) Mountains","verbatimCoordinates":"-4,454 137,227"},"geometry":{"type":"Point","coordinates":[137.227,-4.454]}},{"type":"Feature","properties":{"island":"New Guinea","locality":"Camp 4 (Wollaston Expedition)","stateProvince":"Sudirman (Snow) Mountains","verbatimCoordinates":"-4,409 137,2"},"geometry":{"type":"Point","coordinates":[137.2,-4.409]}},{"type":"Feature","properties":{"island":"New Guinea","locality":"Camp 5 (Wollaston Expedition)","stateProvince":"Sudirman (Snow) Mountains","verbatimCoordinates":"-4,367 137,2"},"geometry":{"type":"Point","coordinates":[137.2,-4.367]}},{"type":"Feature","properties":{"island":"New Guinea","locality":"Camp 6 (Wollaston Expedition)","stateProvince":"Sudirman (Snow) Mountains","verbatimCoordinates":"-4,306 137,197"},"geometry":{"type":"Point","coordinates":[137.197,-4.306]}},{"type":"Feature","properties":{"island":"New Guinea","locality":"Camp 7 (Wollaston Expedition)","stateProvince":"Sudirman (Snow) Mountains","verbatimCoordinates":"-4,259 137,193"},"geometry":{"type":"Point","coordinates":[137.193,-4.259]}},{"type":"Feature","properties":{"island":"New Guinea","locality":"Camp 8 (Wollaston Expedition)","stateProvince":"Sudirman (Snow) Mountains","verbatimCoordinates":"-4,23 137,198"},"geometry":{"type":"Point","coordinates":[137.198,-4.23]}},{"type":"Feature","properties":{"island":"New Guinea","locality":"Camp 9 (Wollaston Expedition)","stateProvince":"Sudirman (Snow) Mountains","verbatimCoordinates":"-4,208 137,207"},"geometry":{"type":"Point","coordinates":[137.207,-4.208]}},{"type":"Feature","properties":{"island":"Waigeo","locality":"Camp Nok","stateProvince":"Raja Ampat Islands","verbatimCoordinates":"-0\u00b015 130\u00b050","verbatimAltitude":"750","georeferenceSources":"Nelles Map - Indonesia (Papua, Maluku)"},"geometry":{"type":"Point","coordinates":[130.83333333333,-0.25]}},{"type":"Feature","properties":{"island":"New Guinea","locality":"Canoe Camp, Setakwa River","stateProvince":"Sudirman (Snow) Mountains","verbatimCoordinates":"-4\u00b030 137\u00b018"},"geometry":{"type":"Point","coordinates":[137.3,-4.5]}},{"type":"Feature","properties":{"island":"Canpade Island","locality":"Canpade (E of Misool)","stateProvince":"Raja Ampat Islands","verbatimCoordinates":"-2,04277780 130,65694440"},"geometry":{"type":"Point","coordinates":[130.6569444,-2.0427778]}},{"type":"Feature","properties":{"island":"Numfoor","locality":"Cape Aikar","stateProvince":"Schouten Islands","verbatimCoordinates":"-1 135"},"geometry":{"type":"Point","coordinates":[135,-1]}},{"type":"Feature","properties":{"island":"New Guinea","locality":"Cape Auri","stateProvince":"Nabire District","verbatimCoordinates":"-2 135"},"geometry":{"type":"Point","coordinates":[135,-2]}},{"type":"Feature","properties":{"island":"New Guinea","locality":"Cape Awura","stateProvince":"SW Papua","verbatimCoordinates":"-4 134"},"geometry":{"type":"Point","coordinates":[134,-4]}},{"type":"Feature","properties":{"island":"Roon","locality":"Cape Ayami","stateProvince":"Wandammen Peninsula","verbatimCoordinates":"-2 134"},"geometry":{"type":"Point","coordinates":[134,-2]}},{"type":"Feature","properties":{"island":"New Guinea","locality":"Cape Bohia","stateProvince":"SW New Guinea","verbatimCoordinates":"-4 134"},"geometry":{"type":"Point","coordinates":[134,-4]}},{"type":"Feature","properties":{"island":"New Guinea","locality":"Cape Bursuruwa","stateProvince":"Wandammen Peninsula","verbatimCoordinates":"-2 134"},"geometry":{"type":"Point","coordinates":[134,-2]}},{"type":"Feature","properties":{"island":"Salawati","locality":"Cape Dadi","stateProvince":"Raja Ampat Islands","verbatimCoordinates":"-0\u00b059 130\u00b037","georeferenceSources":"Nelles Map - Indonesia (Papua, Maluku)"},"geometry":{"type":"Point","coordinates":[130.61666666667,-0.98333333333333]}},{"type":"Feature","properties":{"island":"New Guinea","locality":"Cape Dore","stateProvince":"NW Birdshead Peninsula","verbatimCoordinates":"-0 131"},"geometry":{"type":"Point","coordinates":[131,-0]}},{"type":"Feature","properties":{"island":"New Guinea","locality":"Cape Falagar Tuting","stateProvince":"Onin (Fakfak) Peninsula","verbatimCoordinates":"-2 131"},"geometry":{"type":"Point","coordinates":[131,-2]}},{"type":"Feature","properties":{"island":"Misool","locality":"Cape Fet Dom","stateProvince":"Raja Ampat Islands","verbatimCoordinates":"-1\u00b050 129\u00b040","georeferenceSources":"Nelles Map - Indonesia (Papua, Maluku)"},"geometry":{"type":"Point","coordinates":[129.66666666667,-1.8333333333333]}},{"type":"Feature","properties":{"island":"Waigeo","locality":"Cape Imbikwan","stateProvince":"Raja Ampat Islands","verbatimCoordinates":"-0\u00b023 131\u00b015","georeferenceSources":"Nelles Map - Indonesia (Papua, Maluku)"},"geometry":{"type":"Point","coordinates":[131.25,-0.38333333333333]}},{"type":"Feature","properties":{"island":"New Guinea","locality":"Cape Kakmela","stateProvince":"NW Birdshead Peninsula","verbatimCoordinates":"-1 131"},"geometry":{"type":"Point","coordinates":[131,-1]}},{"type":"Feature","properties":{"island":"New Guinea","locality":"Cape Kamakara","stateProvince":"NW Birdshead Peninsula","verbatimCoordinates":"-1 131"},"geometry":{"type":"Point","coordinates":[131,-1]}},{"type":"Feature","properties":{"island":"Salawati","locality":"Cape Kapat Bogin","stateProvince":"Raja Ampat Islands","verbatimCoordinates":"-1\u00b008 130\u00b039","georeferenceSources":"Nelles Map - Indonesia (Papua, Maluku)"},"geometry":{"type":"Point","coordinates":[130.65,-1.1333333333333]}},{"type":"Feature","properties":{"island":"New Guinea","locality":"Cape Karang Senu","stateProvince":"Nabire District","verbatimCoordinates":"-2 136"},"geometry":{"type":"Point","coordinates":[136,-2]}},{"type":"Feature","properties":{"island":"New Guinea","locality":"Cape Kirana","stateProvince":"Onin (Fakfak) Peninsula","verbatimCoordinates":"-3 132"},"geometry":{"type":"Point","coordinates":[132,-3]}},{"type":"Feature","properties":{"island":"Batanta","locality":"Cape Mabo","stateProvince":"Raja Ampat Islands","verbatimCoordinates":"-0\u00b056 130\u00b024","georeferenceSources":"Nelles Map - Indonesia (Papua, Maluku)"},"geometry":{"type":"Point","coordinates":[130.4,-0.93333333333333]}},{"type":"Feature","properties":{"island":"Batanta","locality":"Cape Makoi","stateProvince":"Raja Ampat Islands","verbatimCoordinates":"-0\u00b047 130\u00b046","georeferenceSources":"Nelles Map - Indonesia (Papua, Maluku)"},"geometry":{"type":"Point","coordinates":[130.76666666667,-0.78333333333333]}},{"type":"Feature","properties":{"island":"New Guinea","locality":"Cape Mangguar","stateProvince":"E Wandammen Peninsula","verbatimCoordinates":"-3 135"},"geometry":{"type":"Point","coordinates":[135,-3]}},{"type":"Feature","properties":{"island":"Supiori","locality":"Cape Manundi","stateProvince":"Schouten Islands","verbatimCoordinates":"-0 135"},"geometry":{"type":"Point","coordinates":[135,-0]}},{"type":"Feature","properties":{"island":"Salawati","locality":"Cape Menonket","stateProvince":"Raja Ampat Islands","verbatimCoordinates":"-1\u00b021 130\u00b049","georeferenceSources":"Nelles Map - Indonesia (Papua, Maluku)"},"geometry":{"type":"Point","coordinates":[130.81666666667,-1.35]}},{"type":"Feature","properties":{"island":"New Guinea","locality":"Cape Menori","stateProvince":"NE Birdshead Peninsula","verbatimCoordinates":"-0 134"},"geometry":{"type":"Point","coordinates":[134,-0]}},{"type":"Feature","properties":{"island":"Waigeo","locality":"Cape Momfafa","stateProvince":"Raja Ampat Islands","verbatimCoordinates":"-0\u00b018 131\u00b020","georeferenceSources":"Nelles Map - Indonesia (Papua, Maluku)"},"geometry":{"type":"Point","coordinates":[131.33333333333,-0.3]}},{"type":"Feature","properties":{"island":"New Guinea","locality":"Cape Mommon","stateProvince":"Bomberai Peninsula","verbatimCoordinates":"-3 132"},"geometry":{"type":"Point","coordinates":[132,-3]}},{"type":"Feature","properties":{"island":"New Guinea","locality":"Cape Namaripi","stateProvince":"SW New Guinea","verbatimCoordinates":"-4 135"},"geometry":{"type":"Point","coordinates":[135,-4]}},{"type":"Feature","properties":{"island":"New Guinea","locality":"Cape Nambima","stateProvince":"SW Papua","verbatimCoordinates":"-4 134"},"geometry":{"type":"Point","coordinates":[134,-4]}},{"type":"Feature","properties":{"island":"New Guinea","locality":"Cape of Good Hope","stateProvince":"N Birdshead Peninsula","verbatimCoordinates":"-0,33333330 132,41666670"},"geometry":{"type":"Point","coordinates":[132.4166667,-0.3333333]}},{"type":"Feature","properties":{"island":"New Guinea","locality":"Cape Oransbari","stateProvince":"Arfak Mountains (NE Birdshead Peninsula)","verbatimCoordinates":"-1\u00b021 134\u00b010"},"geometry":{"type":"Point","coordinates":[134.16666666667,-1.35]}},{"type":"Feature","properties":{"island":"New Guinea","locality":"Cape Papisoi","stateProvince":"Bomberai Peninsula","verbatimCoordinates":"-4 132"},"geometry":{"type":"Point","coordinates":[132,-4]}},{"type":"Feature","properties":{"island":"Yapen","locality":"Cape Rainbawi","stateProvince":"Schouten Islands","verbatimCoordinates":"-1 136"},"geometry":{"type":"Point","coordinates":[136,-1]}},{"type":"Feature","properties":{"island":"New Guinea","locality":"Cape Ributtutin","stateProvince":"Onin (Fakfak) Peninsula","verbatimCoordinates":"-3 132"},"geometry":{"type":"Point","coordinates":[132,-3]}},{"type":"Feature","properties":{"island":"New Guinea","locality":"Cape Ronsore","stateProvince":"SW Papua","verbatimCoordinates":"-2 134"},"geometry":{"type":"Point","coordinates":[134,-2]}},{"type":"Feature","properties":{"island":"New Guinea","locality":"Cape Sabra","stateProvince":"S Birdshead Peninsula","verbatimCoordinates":"-2 132"},"geometry":{"type":"Point","coordinates":[132,-2]}},{"type":"Feature","properties":{"island":"Biak","locality":"Cape Sambersbari","stateProvince":"Schouten Islands","verbatimCoordinates":"-1 135"},"geometry":{"type":"Point","coordinates":[135,-1]}},{"type":"Feature","properties":{"island":"Yapen","locality":"Cape Saribi","stateProvince":"Schouten Islands","verbatimCoordinates":"-1 135"},"geometry":{"type":"Point","coordinates":[135,-1]}},{"type":"Feature","properties":{"island":"New Guinea","locality":"Cape Saweba","stateProvince":"NE Birdshead Peninsula","verbatimCoordinates":"-0 134"},"geometry":{"type":"Point","coordinates":[134,-0]}},{"type":"Feature","properties":{"island":"New Guinea","locality":"Cape Sele","stateProvince":"NW Birdshead Peninsula","verbatimCoordinates":"-1 130"},"geometry":{"type":"Point","coordinates":[130,-1]}},{"type":"Feature","properties":{"island":"New Guinea","locality":"Cape Sibabu","stateProvince":"SW Birdshead Peninsula","verbatimCoordinates":"-1 131"},"geometry":{"type":"Point","coordinates":[131,-1]}},{"type":"Feature","properties":{"island":"New Guinea","locality":"Cape Sidei","stateProvince":"NE Birdshead Peninsula","verbatimCoordinates":"-0 133"},"geometry":{"type":"Point","coordinates":[133,-0]}},{"type":"Feature","properties":{"island":"New Guinea","locality":"Cape Sitoebir","stateProvince":"NW Birdshead Peninsula","verbatimCoordinates":"-2\u00b009 132\u00b008"},"geometry":{"type":"Point","coordinates":[132.13333333333,-2.15]}},{"type":"Feature","properties":{"island":"Biak","locality":"Cape Snerisbari","stateProvince":"Schouten Islands","verbatimCoordinates":"-1 135"},"geometry":{"type":"Point","coordinates":[135,-1]}},{"type":"Feature","properties":{"island":"Kofiau","locality":"Cape Soos","stateProvince":"Raja Ampat Islands","verbatimCoordinates":"-1\u00b012 129\u00b057","georeferenceSources":"Nelles Map - Indonesia (Papua, Maluku)"},"geometry":{"type":"Point","coordinates":[129.95,-1.2]}},{"type":"Feature","properties":{"island":"New Guinea","locality":"Cape Sorong","stateProvince":"NW Birdshead Peninsula","verbatimCoordinates":"-0 131"},"geometry":{"type":"Point","coordinates":[131,-0]}},{"type":"Feature","properties":{"island":"New Guinea","locality":"Cape Tagopah","stateProvince":"Bomberai Peninsula","verbatimCoordinates":"-2 133"},"geometry":{"type":"Point","coordinates":[133,-2]}},{"type":"Feature","properties":{"island":"New Guinea","locality":"Cape Tongerai","stateProvince":"Bomberai Peninsula","verbatimCoordinates":"-3 132"},"geometry":{"type":"Point","coordinates":[132,-3]}},{"type":"Feature","properties":{"island":"New Guinea","locality":"Cape Waios","stateProvince":"N Birdshead Peninsula","verbatimCoordinates":"-0 132"},"geometry":{"type":"Point","coordinates":[132,-0]}},{"type":"Feature","properties":{"island":"New Guinea","locality":"Cape Wamonket","stateProvince":"NW Birdshead Peninsula","verbatimCoordinates":"-1 131"},"geometry":{"type":"Point","coordinates":[131,-1]}},{"type":"Feature","properties":{"island":"Biak","locality":"Cape Wararisbari","stateProvince":"Schouten Islands","verbatimCoordinates":"-1 136"},"geometry":{"type":"Point","coordinates":[136,-1]}},{"type":"Feature","properties":{"island":"Waigeo","locality":"Cape Wariai","stateProvince":"Raja Ampat Islands","verbatimCoordinates":"-0\u00b003 131\u00b003","georeferenceSources":"Nelles Map - Indonesia (Papua, Maluku)"},"geometry":{"type":"Point","coordinates":[131.05,-0.05]}},{"type":"Feature","properties":{"island":"Adi","locality":"Cape Watukebo","stateProvince":"S Bomberai Peninsula","verbatimCoordinates":"-4 133"},"geometry":{"type":"Point","coordinates":[133,-4]}},{"type":"Feature","properties":{"island":"New Guinea","locality":"Cape Weremoeba","stateProvince":"Paniai District (Wissel Lakes)","verbatimCoordinates":"-3,92 136,27"},"geometry":{"type":"Point","coordinates":[136.27,-3.92]}},{"type":"Feature","properties":{"island":"New Guinea","locality":"Cape Winsop","stateProvince":"SW Birdshead Peninsula","verbatimCoordinates":"-2 132"},"geometry":{"type":"Point","coordinates":[132,-2]}},{"type":"Feature","properties":{"island":"Misool","locality":"Cape Yamtu","stateProvince":"Raja Ampat Islands","verbatimCoordinates":"-1\u00b040 130\u00b018","georeferenceSources":"Nelles Map - Indonesia (Papua, Maluku)"},"geometry":{"type":"Point","coordinates":[130.3,-1.6666666666667]}},{"type":"Feature","properties":{"island":"New Guinea","locality":"Cape Yamursba","stateProvince":"N Birdshead Peninsula","verbatimCoordinates":"-0 132"},"geometry":{"type":"Point","coordinates":[132,-0]}},{"type":"Feature","properties":{"island":"New Guinea","locality":"Cape Yori","stateProvince":"Arfak Mountains (NE Birdshead Peninsula)","verbatimCoordinates":"-1 134"},"geometry":{"type":"Point","coordinates":[134,-1]}},{"type":"Feature","properties":{"island":"New Guinea","locality":"Carstensz Peak (Mt Jaya)","stateProvince":"Sudirman (Snow) Mountains","verbatimCoordinates":"-4\u00b005 137\u00b011"},"geometry":{"type":"Point","coordinates":[137.18333333333,-4.0833333333333]}},{"type":"Feature","properties":{"island":"New Guinea","locality":"Carstensz Peak, Utakwa River","stateProvince":"Sudirman (Snow) Mountains","verbatimCoordinates":"-4\u00b005 137\u00b011"},"geometry":{"type":"Point","coordinates":[137.18333333333,-4.0833333333333]}},{"type":"Feature","properties":{"island":"New Guinea","locality":"Casuarina coast","stateProvince":"SW Papua","verbatimCoordinates":"-6\u00b015 138\u00b024"},"geometry":{"type":"Point","coordinates":[138.4,-6.25]}},{"type":"Feature","properties":{"island":"New Guinea","locality":"Casuaris hill near Prauwen bivak","stateProvince":"Rouffaer Area","verbatimCoordinates":"-3,253 138,573"},"geometry":{"type":"Point","coordinates":[138.573,-3.253]}},{"type":"Feature","properties":{"island":"New Guinea","locality":"Central Mountains","stateProvince":"Papua (Irian Jaya)","verbatimCoordinates":"-4,2 137"},"geometry":{"type":"Point","coordinates":[137,-4.2]}},{"type":"Feature","properties":{"island":"New Guinea","locality":"Charles Lewis (Louis) Mountains","stateProvince":"Tiyo (Louis) Mountains","verbatimCoordinates":"-4\u00b00 135\u00b03"},"geometry":{"type":"Point","coordinates":[135.05,-4]}},{"type":"Feature","properties":{"island":"New Guinea","locality":"Comoro","stateProvince":"Casuarina coast","verbatimCoordinates":"-5\u00b056 138\u00b037"},"geometry":{"type":"Point","coordinates":[138.61666666667,-5.9333333333333]}},{"type":"Feature","properties":{"island":"Coquille","locality":"Coquille Island","stateProvince":"Raja Ampat Islands","verbatimCoordinates":"+0\u00b004 130\u00b008","georeferenceSources":"Nelles Map - Indonesia (Papua, Maluku)"},"geometry":{"type":"Point","coordinates":[130.13333333333,0]}},{"type":"Feature","properties":{"island":"Cun","locality":"Cun","stateProvince":"Raja Ampat Islands","verbatimCoordinates":"-1,71638890 129,95111110"},"geometry":{"type":"Point","coordinates":[129.9511111,-1.7163889]}},{"type":"Feature","properties":{"island":"New Guinea","locality":"Cyclops (Cycloop) Mountains","stateProvince":"Cyclop Mountains","verbatimCoordinates":"-2\u00b032 140\u00b036","verbatimAltitude":"100-1200"},"geometry":{"type":"Point","coordinates":[140.6,-2.5333333333333]}},{"type":"Feature","properties":{"locality":"Daago","verbatimCoordinates":"-3\u00b042 136\u00b003"},"geometry":{"type":"Point","coordinates":[136.05,-3.7]}},{"type":"Feature","properties":{"locality":"Dabera","verbatimCoordinates":"-3\u00b016 136\u00b036"},"geometry":{"type":"Point","coordinates":[136.6,-3.2666666666667]}},{"type":"Feature","properties":{"locality":"Daerah Tingkat I Irian Barat","verbatimCoordinates":"-4,75000000 138,00000000","georeferenceSources":"gazetteer Allen Allison (BPBM)"},"geometry":{"type":"Point","coordinates":[138,-4.75]}},{"type":"Feature","properties":{"locality":"Daerah Tingkat I Irian Barat","stateProvince":"Irian Jaya","verbatimCoordinates":"-5 138","georeferenceSources":"gazetteer Herbarium Leiden"},"geometry":{"type":"Point","coordinates":[138,-5]}},{"type":"Feature","properties":{"island":"New Guinea","locality":"Dafonsoro area (Dafensero)","stateProvince":"Cyclop Mountains","verbatimCoordinates":"-2\u00b030 140\u00b020"},"geometry":{"type":"Point","coordinates":[140.33333333333,-2.5]}},{"type":"Feature","properties":{"locality":"Dagai","verbatimCoordinates":"-3\u00b018 137\u00b056"},"geometry":{"type":"Point","coordinates":[137.93333333333,-3.3]}},{"type":"Feature","properties":{"locality":"Dagi","verbatimCoordinates":"-4\u00b033 139\u00b037"},"geometry":{"type":"Point","coordinates":[139.61666666667,-4.55]}},{"type":"Feature","properties":{"locality":"Dampir","verbatimCoordinates":"-0,66666670 130,66666670","georeferenceSources":"gazetteer Allen Allison (BPBM)"},"geometry":{"type":"Point","coordinates":[130.6666667,-0.6666667]}},{"type":"Feature","properties":{"locality":"Dampir","stateProvince":"Irian Jaya","verbatimCoordinates":"-0,6666667 130,6666667","georeferenceSources":"gazetteer Herbarium Leiden"},"geometry":{"type":"Point","coordinates":[130.6666667,-0.6666667]}},{"type":"Feature","properties":{"locality":"Danau Bira (Lake Holmes)","verbatimCoordinates":"-2\u00b029 138\u00b001"},"geometry":{"type":"Point","coordinates":[138.01666666667,-2.4833333333333]}},{"type":"Feature","properties":{"locality":"DANOWARIA","verbatimCoordinates":"-2,91700000 132,30000000","georeferenceSources":"gazetteer Allen Allison (BPBM)"},"geometry":{"type":"Point","coordinates":[132.3,-2.917]}},{"type":"Feature","properties":{"island":"New Guinea","locality":"Danowaria, nr Fakfak","stateProvince":"Onin (Fakfak) Peninsula","verbatimCoordinates":"-2 132","verbatimAltitude":"700"},"geometry":{"type":"Point","coordinates":[132,-2]}},{"type":"Feature","properties":{"island":"Daram","locality":"Daram Island (Valse Pisang Isl.)","stateProvince":"Raja Ampat Islands","verbatimCoordinates":"-2\u00b010 130\u00b054","verbatimAltitude":"0-132","georeferenceSources":"Nelles Map - Indonesia (Papua, Maluku)"},"geometry":{"type":"Point","coordinates":[130.9,-2.1666666666667]}},{"type":"Feature","properties":{"locality":"DAWAI RIVER","verbatimCoordinates":"-1,75000000 136,25000000","georeferenceSources":"gazetteer Allen Allison (BPBM)"},"geometry":{"type":"Point","coordinates":[136.25,-1.75]}},{"type":"Feature","properties":{"locality":"Dayang","verbatimCoordinates":"-0,79194440 130,49972220","georeferenceSources":"gazetteer Allen Allison (BPBM)"},"geometry":{"type":"Point","coordinates":[130.4997222,-0.7919444]}},{"type":"Feature","properties":{"locality":"Dayang","stateProvince":"Irian Jaya","verbatimCoordinates":"-0,7919444 130,4997222","georeferenceSources":"gazetteer Herbarium Leiden"},"geometry":{"type":"Point","coordinates":[130.4997222,-0.7919444]}},{"type":"Feature","properties":{"locality":"De Jong's-punt","verbatimCoordinates":"-6,93333330 138,53333330","georeferenceSources":"gazetteer Allen Allison (BPBM)"},"geometry":{"type":"Point","coordinates":[138.5333333,-6.9333333]}},{"type":"Feature","properties":{"locality":"De Jong's-punt","stateProvince":"Irian Jaya","verbatimCoordinates":"-6,9333333 138,5333333","georeferenceSources":"gazetteer Herbarium Leiden"},"geometry":{"type":"Point","coordinates":[138.5333333,-6.9333333]}},{"type":"Feature","properties":{"locality":"De Yongs","verbatimCoordinates":"-6,93333330 138,53333330","georeferenceSources":"gazetteer Allen Allison (BPBM)"},"geometry":{"type":"Point","coordinates":[138.5333333,-6.9333333]}},{"type":"Feature","properties":{"locality":"De Yongs","stateProvince":"Irian Jaya","verbatimCoordinates":"-6,9333333 138,5333333","georeferenceSources":"gazetteer Herbarium Leiden"},"geometry":{"type":"Point","coordinates":[138.5333333,-6.9333333]}},{"type":"Feature","properties":{"island":"Deer","locality":"Deer","stateProvince":"Raja Ampat Islands","verbatimCoordinates":"-1,15222220 129,84277780"},"geometry":{"type":"Point","coordinates":[129.8427778,-1.1522222]}},{"type":"Feature","properties":{"locality":"Deer","stateProvince":"Irian Jaya","verbatimCoordinates":"-1,1522222 129,8427778","georeferenceSources":"gazetteer Herbarium Leiden"},"geometry":{"type":"Point","coordinates":[129.8427778,-1.1522222]}},{"type":"Feature","properties":{"island":"New Guinea","locality":"Degen","stateProvince":"Onin (Fakfak) Peninsula","verbatimCoordinates":"-2 132"},"geometry":{"type":"Point","coordinates":[132,-2]}},{"type":"Feature","properties":{"locality":"Degen Baroe","stateProvince":"Irian Jaya","verbatimCoordinates":"-2,7097222 132,175","georeferenceSources":"gazetteer Herbarium Leiden"},"geometry":{"type":"Point","coordinates":[132.175,-2.7097222]}},{"type":"Feature","properties":{"locality":"Degen Baru","verbatimCoordinates":"-2,70972220 132,17500000","georeferenceSources":"gazetteer Allen Allison (BPBM)"},"geometry":{"type":"Point","coordinates":[132.175,-2.7097222]}},{"type":"Feature","properties":{"locality":"Degen Baru","stateProvince":"Irian Jaya","verbatimCoordinates":"-2,7097222 132,175","georeferenceSources":"gazetteer Herbarium Leiden"},"geometry":{"type":"Point","coordinates":[132.175,-2.7097222]}},{"type":"Feature","properties":{"locality":"Degen River","verbatimCoordinates":"-2,70416670 132,18333330","georeferenceSources":"gazetteer Allen Allison (BPBM)"},"geometry":{"type":"Point","coordinates":[132.1833333,-2.7041667]}},{"type":"Feature","properties":{"locality":"Degen River","stateProvince":"Irian Jaya","verbatimCoordinates":"-2,7041667 132,1833333","georeferenceSources":"gazetteer Herbarium Leiden"},"geometry":{"type":"Point","coordinates":[132.1833333,-2.7041667]}},{"type":"Feature","properties":{"island":"New Guinea","locality":"Deimeimei (Anggi Lakes)","stateProvince":"Arfak Mountains (NE Birdshead Peninsula)","verbatimCoordinates":"-1\u00b008 133\u00b051"},"geometry":{"type":"Point","coordinates":[133.85,-1.1333333333333]}},{"type":"Feature","properties":{"island":"New Guinea","locality":"Dekai (Detai)","stateProvince":"Jayapura District","verbatimCoordinates":"-4\u00b051 139\u00b029","verbatimAltitude":"100","georeferenceSources":"Bordoni (2009)"},"geometry":{"type":"Point","coordinates":[139.48333333333,-4.85]}},{"type":"Feature","properties":{"island":"New Guinea","locality":"Demaisi, Arfak Mts.","stateProvince":"E Birdshead Peninsula","verbatimCoordinates":"-1\u00b010 133\u00b053","verbatimAltitude":"1637","georeferenceSources":"GPS, PIF expedition 2011"},"geometry":{"type":"Point","coordinates":[133.88333333333,-1.1666666666667]}},{"type":"Feature","properties":{"island":"New Guinea","locality":"Demta","verbatimCoordinates":"-2\u00b02 140\u00b008","georeferenceSources":"gazetteer Herbarium Leiden"},"geometry":{"type":"Point","coordinates":[140.13333333333,-2.0333333333333]}},{"type":"Feature","properties":{"island":"New Guinea","locality":"Depapre","stateProvince":"Cyclop Mountains","verbatimCoordinates":"-2\u00b028 140\u00b022","verbatimAltitude":"125-500"},"geometry":{"type":"Point","coordinates":[140.36666666667,-2.4666666666667]}},{"type":"Feature","properties":{"island":"New Guinea","locality":"Derewo River","stateProvince":"Central Mountains","verbatimCoordinates":"-2 -3 136"},"geometry":{"type":"Point","coordinates":[136,0]}},{"type":"Feature","properties":{"locality":"Desira","verbatimCoordinates":"-1\u00b039 133\u00b034"},"geometry":{"type":"Point","coordinates":[133.56666666667,-1.65]}},{"type":"Feature","properties":{"locality":"Dessa Warnapi","verbatimCoordinates":"-1,133333 134,083333","georeferenceSources":"gazetteer Herbarium Leiden"},"geometry":{"type":"Point","coordinates":[134.083333,-1.133333]}},{"type":"Feature","properties":{"island":"New Guinea","locality":"Detai","verbatimCoordinates":"-3\u00b033 136\u00b021"},"geometry":{"type":"Point","coordinates":[136.35,-3.55]}},{"type":"Feature","properties":{"locality":"Digatara Mt.","verbatimCoordinates":"-3,719 136,491","georeferenceSources":"gazetteer Herbarium Leiden"},"geometry":{"type":"Point","coordinates":[136.491,-3.719]}},{"type":"Feature","properties":{"island":"New Guinea","locality":"Digoel Mountains (Digul)","stateProvince":"Digul Area","verbatimCoordinates":"-5\u00b005 140\u00b030"},"geometry":{"type":"Point","coordinates":[140.5,-5.0833333333333]}},{"type":"Feature","properties":{"island":"New Guinea","locality":"Digoel Oewimboe","stateProvince":"Digul Area","verbatimCoordinates":"-7,11666670 138,70000000"},"geometry":{"type":"Point","coordinates":[138.7,-7.1166667]}},{"type":"Feature","properties":{"locality":"Digoel Oewimboe","stateProvince":"Irian Jaya","verbatimCoordinates":"-7,1166667 138,7","georeferenceSources":"gazetteer Herbarium Leiden"},"geometry":{"type":"Point","coordinates":[138.7,-7.1166667]}},{"type":"Feature","properties":{"island":"New Guinea","locality":"Digoel River (Digul)","stateProvince":"Digul Area","verbatimCoordinates":"-7\u00b007 138\u00b048","georeferenceSources":"gazetteer Herbarium Leiden"},"geometry":{"type":"Point","coordinates":[138.8,-7.1166666666667]}},{"type":"Feature","properties":{"island":"New Guinea","locality":"Digoel-Kian","stateProvince":"Digul Area","verbatimCoordinates":"-7,11666670 138,70000000"},"geometry":{"type":"Point","coordinates":[138.7,-7.1166667]}},{"type":"Feature","properties":{"locality":"Digoel-Kian","stateProvince":"Irian Jaya","verbatimCoordinates":"-7,1166667 138,7","georeferenceSources":"gazetteer Herbarium Leiden"},"geometry":{"type":"Point","coordinates":[138.7,-7.1166667]}},{"type":"Feature","properties":{"locality":"Digoel-rivier","stateProvince":"Irian Jaya","verbatimCoordinates":"-7,1166667 138,7","georeferenceSources":"gazetteer Herbarium Leiden"},"geometry":{"type":"Point","coordinates":[138.7,-7.1166667]}},{"type":"Feature","properties":{"locality":"Digui River","verbatimCoordinates":"-7,11666667 138,70000000","georeferenceSources":"gazetteer Allen Allison (BPBM)"},"geometry":{"type":"Point","coordinates":[138.7,-7.11666667]}},{"type":"Feature","properties":{"locality":"Dimba","verbatimCoordinates":"-3\u00b052 138\u00b033"},"geometry":{"type":"Point","coordinates":[138.55,-3.8666666666667]}},{"type":"Feature","properties":{"island":"New Guinea","locality":"Dingerkon","verbatimCoordinates":"-4\u00b028 140"},"geometry":{"type":"Point","coordinates":[140,-4.4666666666667]}},{"type":"Feature","properties":{"locality":"Dingerkon","verbatimCoordinates":"-4,466667 140","georeferenceSources":"gazetteer Herbarium Leiden"},"geometry":{"type":"Point","coordinates":[140,-4.466667]}},{"type":"Feature","properties":{"island":"New Guinea","locality":"Diuremna","stateProvince":"Jayawijaya Mountains","verbatimCoordinates":"-4\u00b02 139\u00b05","verbatimAltitude":"1900-2100"},"geometry":{"type":"Point","coordinates":[139.08333333333,-4.0333333333333]}},{"type":"Feature","properties":{"locality":"Djajapura","verbatimCoordinates":"-2,53333330 140,70000000","georeferenceSources":"gazetteer Allen Allison (BPBM)"},"geometry":{"type":"Point","coordinates":[140.7,-2.5333333]}},{"type":"Feature","properties":{"locality":"Djajapura","verbatimCoordinates":"-2,53333 140,7","georeferenceSources":"gazetteer Herbarium Leiden"},"geometry":{"type":"Point","coordinates":[140.7,-2.53333]}},{"type":"Feature","properties":{"locality":"Djajapura","stateProvince":"Irian Jaya","verbatimCoordinates":"-2,5333333 140,7","georeferenceSources":"gazetteer Herbarium Leiden"},"geometry":{"type":"Point","coordinates":[140.7,-2.5333333]}},{"type":"Feature","properties":{"island":"New Guinea","locality":"Djamna (Jamna)","verbatimCoordinates":"-2\u00b001 139\u00b015"},"geometry":{"type":"Point","coordinates":[139.25,-2.0166666666667]}},{"type":"Feature","properties":{"locality":"Djera","verbatimCoordinates":"-4,466667 135,583333","georeferenceSources":"gazetteer Herbarium Leiden"},"geometry":{"type":"Point","coordinates":[135.583333,-4.466667]}},{"type":"Feature","properties":{"island":"New Guinea","locality":"Djera (Jera)","verbatimCoordinates":"-4\u00b028 135\u00b035"},"geometry":{"type":"Point","coordinates":[135.58333333333,-4.4666666666667]}},{"type":"Feature","properties":{"locality":"DJOEBAREN","verbatimCoordinates":"-2,26700000 138,86700000","georeferenceSources":"gazetteer Allen Allison (BPBM)"},"geometry":{"type":"Point","coordinates":[138.867,-2.267]}},{"type":"Feature","properties":{"island":"New Guinea","locality":"Djoebaren (Jubaren), nr Sarmi","stateProvince":"Mamberamo Area","verbatimCoordinates":"-2 138","verbatimAltitude":"80"},"geometry":{"type":"Point","coordinates":[138,-2]}},{"type":"Feature","properties":{"island":"New Guinea","locality":"Doberai Peninsula (Vogelkop)","stateProvince":"Birdshead Peninsula","verbatimCoordinates":"-1 133"},"geometry":{"type":"Point","coordinates":[133,-1]}},{"type":"Feature","properties":{"island":"New Guinea","locality":"Dobo","verbatimCoordinates":"-5\u00b046 134\u00b013"},"geometry":{"type":"Point","coordinates":[134.21666666667,-5.7666666666667]}},{"type":"Feature","properties":{"locality":"Dobul Yef","verbatimCoordinates":"-2,19833330 130,31305560","georeferenceSources":"gazetteer Allen Allison (BPBM)"},"geometry":{"type":"Point","coordinates":[130.3130556,-2.1983333]}},{"type":"Feature","properties":{"locality":"Dobul Yef","stateProvince":"Irian Jaya","verbatimCoordinates":"-2,1983333 130,3130556","georeferenceSources":"gazetteer Herbarium Leiden"},"geometry":{"type":"Point","coordinates":[130.3130556,-2.1983333]}},{"type":"Feature","properties":{"locality":"Doea Islands","verbatimCoordinates":"-1,52666670 130,51027780","georeferenceSources":"gazetteer Allen Allison (BPBM)"},"geometry":{"type":"Point","coordinates":[130.5102778,-1.5266667]}},{"type":"Feature","properties":{"locality":"Doea Islands","stateProvince":"Irian Jaya","verbatimCoordinates":"-1,5266667 130,5102778","georeferenceSources":"gazetteer Herbarium Leiden"},"geometry":{"type":"Point","coordinates":[130.5102778,-1.5266667]}},{"type":"Feature","properties":{"locality":"Doeib","verbatimCoordinates":"-0,05000000 130,11666670","georeferenceSources":"gazetteer Allen Allison (BPBM)"},"geometry":{"type":"Point","coordinates":[130.1166667,-0.05]}},{"type":"Feature","properties":{"locality":"Doeib","stateProvince":"Irian Jaya","verbatimCoordinates":"-0,05 130,1166667","georeferenceSources":"gazetteer Herbarium Leiden"},"geometry":{"type":"Point","coordinates":[130.1166667,-0.05]}},{"type":"Feature","properties":{"locality":"Doelief","verbatimCoordinates":"-1,23944440 130,73861110","georeferenceSources":"gazetteer Allen Allison (BPBM)"},"geometry":{"type":"Point","coordinates":[130.7386111,-1.2394444]}},